[
  {
    "coord": {
      "lat": 10.302962272170546,
      "lon": -86.23290880717592
    },
    "city": "Refundores",
    "country": "Costa Rica",
    "region": "Guanacaste",
    "is_raining": false
  },
  {
    "coord": {
      "lat": 6.693860723628191,
      "lon": -79.99851790869589
    },
    "city": "Pueblo Nuevo",
    "country": "Panama",
    "region": "Los Santos",
    "is_raining": false
  },
  {
    "coord": {
      "lat": 4.145121725392826,
      "lon": -80.69848316212399
    },
    "city": "El Sauce",
    "country": "Peru",
    "region": "Piura",
    "is_raining": true
  },
  {
    "coord": {
      "lat": 7.882643483495372,
      "lon": -82.13365754980435
    },
    "city": "Chichecal",
    "country": "Panama",
    "region": "Chiriqui",
    "is_raining": false
  },
  {
    "coord": {
      "lat": 9.918014000169563,
      "lon": -87.62631064238785
    },
    "city": "Refundores",
    "country": "Costa Rica",
    "region": "Guanacaste",
    "is_raining": false
  },
  {
    "coord": {
      "lat": 4.78951008361183,
      "lon": -81.26501296351489
    },
    "city": "El Sauce",
    "country": "Peru",
    "region": "Piura",
    "is_raining": false
  },
  {
    "coord": {
      "lat": 2.4682425515382533,
      "lon": -79.12498959620879
    },
    "city": "Majagual",
    "country": "Colombia",
    "region": "Narino",
    "is_raining": false
  },
  {
    "coord": {
      "lat": 0.6875828809878186,
      "lon": -89.38291312858202
    },
    "city": "Seymour",
    "country": "Ecuador",
    "region": "Galapagos",
    "is_raining": false
  },
  {
    "coord": {
      "lat": 3.537228257937528,
      "lon": -80.84113309569297
    },
    "city": "El Sauce",
    "country": "Peru",
    "region": "Piura",
    "is_raining": true
  },
  {
    "coord": {
      "lat": 3.1030503542323657,
      "lon": -78.95261374378222
    },
    "city": "Caballos",
    "country": "Colombia",
    "region": "Narino",
    "is_raining": false
  },
  {
    "coord": {
      "lat": 4.7544966259459045,
      "lon": -81.94624523789592
    },
    "city": "El Sauce",
    "country": "Peru",
    "region": "Piura",
    "is_raining": false
  },
  {
    "coord": {
      "lat": -1.2736016600523072,
      "lon": -88.90384648141062
    },
    "city": "El Progreso",
    "country": "Ecuador",
    "region": "Galapagos",
    "is_raining": true
  },
  {
    "coord": {
      "lat": -2.3412178509455686,
      "lon": -79.83761017335495
    },
    "city": "Eloy Alfaro",
    "country": "Ecuador",
    "region": "Guayas",
    "is_raining": false
  },
  {
    "coord": {
      "lat": -5.645339529646492,
      "lon": -81.2811553946693
    },
    "city": "Puerto Bayobar",
    "country": "Peru",
    "region": "Piura",
    "is_raining": false
  },
  {
    "coord": {
      "lat": -0.6178528091954121,
      "lon": -91.28598877004457
    },
    "city": "Santo Tomas",
    "country": "Ecuador",
    "region": "Galapagos",
    "is_raining": true
  },
  {
    "coord": {
      "lat": 5.989429999225777,
      "lon": -81.86357786972475
    },
    "city": "El Trapiche",
    "country": "Panama",
    "region": "Veraguas",
    "is_raining": false
  },
  {
    "coord": {
      "lat": -0.42608819485880645,
      "lon": -88.59100858182555
    },
    "city": "La Hacienda",
    "country": "Ecuador",
    "region": "Galapagos",
    "is_raining": true
  },
  {
    "coord": {
      "lat": -0.9849985095294898,
      "lon": -79.48755113153967
    },
    "city": "Quevedo",
    "country": "Ecuador",
    "region": "Los Rios",
    "is_raining": false
  },
  {
    "coord": {
      "lat": 2.0789442290395925,
      "lon": -79.95074462489902
    },
    "city": "Las Mercedes",
    "country": "Colombia",
    "region": "Narino",
    "is_raining": true
  },
  {
    "coord": {
      "lat": 8.694968728254935,
      "lon": -85.20670163880006
    },
    "city": "Carmen",
    "country": "Costa Rica",
    "region": "Puntarenas",
    "is_raining": false
  },
  {
    "coord": {
      "lat": 0.42269897967641157,
      "lon": -79.31975129965235
    },
    "city": "Rosa Zarate",
    "country": "Ecuador",
    "region": "Esmeraldas",
    "is_raining": false
  },
  {
    "coord": {
      "lat": -0.8497969270911341,
      "lon": -89.99129216964089
    },
    "city": "Puerto Ayora",
    "country": "Ecuador",
    "region": "Galapagos",
    "is_raining": true
  },
  {
    "coord": {
      "lat": -5.069233974112024,
      "lon": -81.61065861864452
    },
    "city": "Foca",
    "country": "Peru",
    "region": "Piura",
    "is_raining": false
  },
  {
    "coord": {
      "lat": -2.4018914335363633,
      "lon": -89.31479017530951
    },
    "city": "San Cristobal",
    "country": "Ecuador",
    "region": "Galapagos",
    "is_raining": true
  },
  {
    "coord": {
      "lat": -1.5690908344122647,
      "lon": -88.23356413063459
    },
    "city": "La Hacienda",
    "country": "Ecuador",
    "region": "Galapagos",
    "is_raining": true
  },
  {
    "coord": {
      "lat": -2.9583259236006683,
      "lon": -81.84550184811508
    },
    "city": "Santa Paula",
    "country": "Ecuador",
    "region": "Guayas",
    "is_raining": false
  },
  {
    "coord": {
      "lat": 6.618448867745158,
      "lon": -81.9016998261598
    },
    "city": "El Trapiche",
    "country": "Panama",
    "region": "Veraguas",
    "is_raining": true
  },
  {
    "coord": {
      "lat": -0.44384902107553614,
      "lon": -91.88303579398703
    },
    "city": "Santo Tomas",
    "country": "Ecuador",
    "region": "Galapagos",
    "is_raining": true
  },
  {
    "coord": {
      "lat": 0.1941463844910345,
      "lon": -91.62923372013816
    },
    "city": "Santo Tomas",
    "country": "Ecuador",
    "region": "Galapagos",
    "is_raining": true
  },
  {
    "coord": {
      "lat": 0.5614645936216789,
      "lon": -90.52505270343373
    },
    "city": "Seymour",
    "country": "Ecuador",
    "region": "Galapagos",
    "is_raining": false
  },
  {
    "coord": {
      "lat": -2.2558869788960294,
      "lon": -78.09426249924337
    },
    "city": "Macas",
    "country": "Ecuador",
    "region": "Morona-Santiago",
    "is_raining": false
  },
  {
    "coord": {
      "lat": 0.4377969410491005,
      "lon": -89.92717618885388
    },
    "city": "Seymour",
    "country": "Ecuador",
    "region": "Galapagos",
    "is_raining": false
  },
  {
    "coord": {
      "lat": 1.097790907477659,
      "lon": -90.2058305760277
    },
    "city": "Seymour",
    "country": "Ecuador",
    "region": "Galapagos",
    "is_raining": false
  },
  {
    "coord": {
      "lat": -6.172221647250964,
      "lon": -83.07484503172668
    },
    "city": "Kilometro Doscientos Cuarenticinco",
    "country": "Peru",
    "region": "Lambayeque",
    "is_raining": false
  },
  {
    "coord": {
      "lat": 0.10119164089759636,
      "lon": -88.20914082688584
    },
    "city": "Progreso",
    "country": "Ecuador",
    "region": "Galapagos",
    "is_raining": true
  },
  {
    "coord": {
      "lat": -3.965730228786839,
      "lon": -80.88565351776987
    },
    "city": "Papayal",
    "country": "Peru",
    "region": "Tumbes",
    "is_raining": false
  },
  {
    "coord": {
      "lat": -2.184629078300361,
      "lon": -88.41324392091217
    },
    "city": "San Cristobal",
    "country": "Ecuador",
    "region": "Galapagos",
    "is_raining": true
  },
  {
    "coord": {
      "lat": 4.7703316502106645,
      "lon": -80.60537702285056
    },
    "city": "El Sauce",
    "country": "Peru",
    "region": "Piura",
    "is_raining": false
  },
  {
    "coord": {
      "lat": -0.03529723839204735,
      "lon": -92.33430232490359
    },
    "city": "Santo Tomas",
    "country": "Ecuador",
    "region": "Galapagos",
    "is_raining": true
  },
  {
    "coord": {
      "lat": 2.835707109042673,
      "lon": -80.36611310691796
    },
    "city": "Las Mercedes",
    "country": "Colombia",
    "region": "Narino",
    "is_raining": false
  },
  {
    "coord": {
      "lat": -2.307611151817966,
      "lon": -80.81229135631416
    },
    "city": "Santa Elena",
    "country": "Ecuador",
    "region": "Guayas",
    "is_raining": false
  },
  {
    "coord": {
      "lat": -1.8021698784719717,
      "lon": -92.0749713343056
    },
    "city": "Puerto Villamil",
    "country": "Ecuador",
    "region": "Galapagos",
    "is_raining": true
  },
  {
    "coord": {
      "lat": -3.941977876641417,
      "lon": -82.45206861264765
    },
    "city": "Restin",
    "country": "Peru",
    "region": "Piura",
    "is_raining": false
  },
  {
    "coord": {
      "lat": -0.05234547007555079,
      "lon": -89.32408703970842
    },
    "city": "Progreso",
    "country": "Ecuador",
    "region": "Galapagos",
    "is_raining": true
  },
  {
    "coord": {
      "lat": -1.4678314105119483,
      "lon": -79.89668996204234
    },
    "city": "Balzar",
    "country": "Ecuador",
    "region": "Guayas",
    "is_raining": false
  },
  {
    "coord": {
      "lat": 0.19688471469233093,
      "lon": -80.24315446424832
    },
    "city": "Arrastradero",
    "country": "Ecuador",
    "region": "Manabi",
    "is_raining": false
  },
  {
    "coord": {
      "lat": 1.3037189848914323,
      "lon": -90.7736398475121
    },
    "city": "Seymour",
    "country": "Ecuador",
    "region": "Galapagos",
    "is_raining": false
  },
  {
    "coord": {
      "lat": -0.6341667228899297,
      "lon": -89.15498667957193
    },
    "city": "La Hacienda",
    "country": "Ecuador",
    "region": "Galapagos",
    "is_raining": true
  },
  {
    "coord": {
      "lat": -0.6663312471249583,
      "lon": -77.78921377348439
    },
    "city": "Urcusiqui",
    "country": "Ecuador",
    "region": "Napo",
    "is_raining": false
  },
  {
    "coord": {
      "lat": -1.8738423513556342,
      "lon": -88.99011271222591
    },
    "city": "San Cristobal",
    "country": "Ecuador",
    "region": "Galapagos",
    "is_raining": true
  },
  {
    "coord": {
      "lat": -1.9403434971611802,
      "lon": -91.44226373916844
    },
    "city": "Villamil",
    "country": "Ecuador",
    "region": "Galapagos",
    "is_raining": true
  },
  {
    "coord": {
      "lat": 0.33114157140040845,
      "lon": -88.81656869013663
    },
    "city": "El Progreso",
    "country": "Ecuador",
    "region": "Galapagos",
    "is_raining": true
  },
  {
    "coord": {
      "lat": -3.453330506912181,
      "lon": -81.33461088380011
    },
    "city": "Cardalito",
    "country": "Peru",
    "region": "Tumbes",
    "is_raining": false
  },
  {
    "coord": {
      "lat": 8.134713724477507,
      "lon": -83.55924803423386
    },
    "city": "Madrigal",
    "country": "Costa Rica",
    "region": "Puntarenas",
    "is_raining": false
  },
  {
    "coord": {
      "lat": 9.250915736642852,
      "lon": -85.49909383243532
    },
    "city": "Carmen",
    "country": "Costa Rica",
    "region": "Puntarenas",
    "is_raining": false
  },
  {
    "coord": {
      "lat": 9.133198387968747,
      "lon": -82.56908467574857
    },
    "city": "Risco",
    "country": "Panama",
    "region": "Bocas del Toro",
    "is_raining": false
  },
  {
    "coord": {
      "lat": 9.263573341674473,
      "lon": -81.95704654723983
    },
    "city": "Cusapin",
    "country": "Panama",
    "region": "Bocas del Toro",
    "is_raining": false
  },
  {
    "coord": {
      "lat": -0.9971524777758987,
      "lon": -90.62012312422917
    },
    "city": "El Correo",
    "country": "Ecuador",
    "region": "Galapagos",
    "is_raining": false
  },
  {
    "coord": {
      "lat": 12.113570129691993,
      "lon": -90.91090980778462
    },
    "city": "Club Salinitas",
    "country": "El Salvador",
    "region": "Sonsonate",
    "is_raining": false
  },
  {
    "coord": {
      "lat": 0.6795839948079845,
      "lon": -78.47537331628634
    },
    "city": "Pinan",
    "country": "Ecuador",
    "region": "Imbabura",
    "is_raining": false
  },
  {
    "coord": {
      "lat": -0.21477877900319697,
      "lon": -89.86026309013494
    },
    "city": "Seymour",
    "country": "Ecuador",
    "region": "Galapagos",
    "is_raining": false
  },
  {
    "coord": {
      "lat": 8.038059943890985,
      "lon": -80.88433150794887
    },
    "city": "La Mata",
    "country": "Panama",
    "region": "Veraguas",
    "is_raining": false
  },
  {
    "coord": {
      "lat": -0.353248013861446,
      "lon": -90.4511117266203
    },
    "city": "Seymour",
    "country": "Ecuador",
    "region": "Galapagos",
    "is_raining": false
  },
  {
    "coord": {
      "lat": -6.6670354643909775,
      "lon": -82.20934916547449
    },
    "city": "Kilometro Doscientos Cuarenticinco",
    "country": "Peru",
    "region": "Lambayeque",
    "is_raining": false
  },
  {
    "coord": {
      "lat": 1.706631883933909,
      "lon": -80.86895264598668
    },
    "city": "Galera",
    "country": "Ecuador",
    "region": "Esmeraldas",
    "is_raining": false
  },
  {
    "coord": {
      "lat": 7.267547983747676,
      "lon": -84.02094737962726
    },
    "city": "Madrigal",
    "country": "Costa Rica",
    "region": "Puntarenas",
    "is_raining": false
  },
  {
    "coord": {
      "lat": -0.09688123433925,
      "lon": -90.98766466129146
    },
    "city": "Santo Tomas",
    "country": "Ecuador",
    "region": "Galapagos",
    "is_raining": false
  },
  {
    "coord": {
      "lat": -6.807812449952678,
      "lon": -82.82321717760938
    },
    "city": "Kilometro Doscientos Cuarenticinco",
    "country": "Peru",
    "region": "Lambayeque",
    "is_raining": false
  },
  {
    "coord": {
      "lat": -1.525648369063859,
      "lon": -90.31913577879301
    },
    "city": "La Baronesa",
    "country": "Ecuador",
    "region": "Galapagos",
    "is_raining": false
  },
  {
    "coord": {
      "lat": -5.434132812631873,
      "lon": -82.78813230912088
    },
    "city": "Foca",
    "country": "Peru",
    "region": "Piura",
    "is_raining": false
  },
  {
    "coord": {
      "lat": 7.5373623975116715,
      "lon": -84.78122575618339
    },
    "city": "San Pedrillo",
    "country": "Costa Rica",
    "region": "Puntarenas",
    "is_raining": false
  },
  {
    "coord": {
      "lat": -4.806757497561961,
      "lon": -81.04250630334404
    },
    "city": "Vichayal",
    "country": "Peru",
    "region": "Piura",
    "is_raining": false
  },
  {
    "coord": {
      "lat": 6.059026348154205,
      "lon": -80.56800214217715
    },
    "city": "Horcones",
    "country": "Panama",
    "region": "Los Santos",
    "is_raining": false
  },
  {
    "coord": {
      "lat": -2.813559605170269,
      "lon": -89.82708271068284
    },
    "city": "La Baronesa",
    "country": "Ecuador",
    "region": "Galapagos",
    "is_raining": false
  },
  {
    "coord": {
      "lat": -3.272836844877304,
      "lon": -78.13818044865285
    },
    "city": "Centro Timkimints",
    "country": "Ecuador",
    "region": "Morona-Santiago",
    "is_raining": false
  },
  {
    "coord": {
      "lat": -2.7977446491567832,
      "lon": -79.38325187565175
    },
    "city": "Copte",
    "country": "Ecuador",
    "region": "Azuay",
    "is_raining": true
  },
  {
    "coord": {
      "lat": -7.681822275102661,
      "lon": -81.21903586013616
    },
    "city": "Kilometro Doscientos Cuarenticinco",
    "country": "Peru",
    "region": "Lambayeque",
    "is_raining": false
  },
  {
    "coord": {
      "lat": 11.256990392200905,
      "lon": -87.15188733495003
    },
    "city": "Masachapa",
    "country": "Nicaragua",
    "region": "Managua",
    "is_raining": false
  },
  {
    "coord": {
      "lat": 11.653150697406275,
      "lon": -88.6840795727627
    },
    "city": "El Arco",
    "country": "El Salvador",
    "region": "Usulutan",
    "is_raining": false
  },
  {
    "coord": {
      "lat": 6.7158367280908635,
      "lon": -80.62381570211143
    },
    "city": "Horcones",
    "country": "Panama",
    "region": "Los Santos",
    "is_raining": false
  },
  {
    "coord": {
      "lat": 10.835057507288184,
      "lon": -87.62678211507303
    },
    "city": "Masachapa",
    "country": "Nicaragua",
    "region": "Managua",
    "is_raining": false
  },
  {
    "coord": {
      "lat": -4.133380843212564,
      "lon": -79.9616232329663
    },
    "city": "Celica",
    "country": "Ecuador",
    "region": "Loja",
    "is_raining": false
  },
  {
    "coord": {
      "lat": -3.6224269618179648,
      "lon": -80.3601177800611
    },
    "city": "Tumbes",
    "country": "Peru",
    "region": "Tumbes",
    "is_raining": false
  },
  {
    "coord": {
      "lat": 8.927367124349118,
      "lon": -86.86772162112538
    },
    "city": "Puerto San Juanillo",
    "country": "Costa Rica",
    "region": "Guanacaste",
    "is_raining": false
  },
  {
    "coord": {
      "lat": 10.708581933612521,
      "lon": -84.17418537696943
    },
    "city": "Hacienda Tres Amigos",
    "country": "Costa Rica",
    "region": "Alajuela",
    "is_raining": false
  },
  {
    "coord": {
      "lat": 2.257334375317143,
      "lon": -80.59417948840327
    },
    "city": "Galera",
    "country": "Ecuador",
    "region": "Esmeraldas",
    "is_raining": false
  },
  {
    "coord": {
      "lat": -1.8056903732585,
      "lon": -78.52068913123104
    },
    "city": "Riobamba",
    "country": "Ecuador",
    "region": "Chimborazo",
    "is_raining": true
  },
  {
    "coord": {
      "lat": -3.1301068886362486,
      "lon": -80.80948977298685
    },
    "city": "El Alamo",
    "country": "Peru",
    "region": "Tumbes",
    "is_raining": false
  },
  {
    "coord": {
      "lat": 12.344567548107648,
      "lon": -91.57608987167487
    },
    "city": "San Jose Rama Blanca",
    "country": "Guatemala",
    "region": "Escuintla",
    "is_raining": false
  },
  {
    "coord": {
      "lat": 8.851906569224084,
      "lon": -86.03972900924737
    },
    "city": "Garfa",
    "country": "Costa Rica",
    "region": "Guanacaste",
    "is_raining": false
  },
  {
    "coord": {
      "lat": 11.638278091896083,
      "lon": -86.6529753344287
    },
    "city": "Masachapa",
    "country": "Nicaragua",
    "region": "Managua",
    "is_raining": false
  },
  {
    "coord": {
      "lat": 8.122829369990626,
      "lon": -84.96670028595882
    },
    "city": "San Pedrillo",
    "country": "Costa Rica",
    "region": "Puntarenas",
    "is_raining": false
  },
  {
    "coord": {
      "lat": 7.732408795351873,
      "lon": -82.76150940603948
    },
    "city": "Resbalosa",
    "country": "Panama",
    "region": "Chiriqui",
    "is_raining": true
  },
  {
    "coord": {
      "lat": -0.8440468834147197,
      "lon": -78.6073049682358
    },
    "city": "Saquisili",
    "country": "Ecuador",
    "region": "Cotopaxi",
    "is_raining": true
  },
  {
    "coord": {
      "lat": 2.673666285192766,
      "lon": -79.73084152268056
    },
    "city": "Majagual",
    "country": "Colombia",
    "region": "Narino",
    "is_raining": false
  },
  {
    "coord": {
      "lat": -1.9097252222613292,
      "lon": -80.33887060584566
    },
    "city": "Pedro Carbo",
    "country": "Ecuador",
    "region": "Guayas",
    "is_raining": false
  },
  {
    "coord": {
      "lat": 8.724773741860929,
      "lon": -80.47100188013343
    },
    "city": "La Pintada",
    "country": "Panama",
    "region": "Cocle",
    "is_raining": false
  },
  {
    "coord": {
      "lat": 11.492342734085852,
      "lon": -84.02631094509377
    },
    "city": "Atlanta",
    "country": "Nicaragua",
    "region": "Region Autonoma Atlantico Sur",
    "is_raining": false
  },
  {
    "coord": {
      "lat": -8.618834130235001,
      "lon": -80.36138267271643
    },
    "city": "El Brujo",
    "country": "Peru",
    "region": "La Libertad",
    "is_raining": false
  },
  {
    "coord": {
      "lat": -4.832426926227043,
      "lon": -77.97772401076747
    },
    "city": "Tambo Tahuahua",
    "country": "Peru",
    "region": "Amazonas",
    "is_raining": false
  },
  {
    "coord": {
      "lat": 12.4959116658289,
      "lon": -87.76688303814304
    },
    "city": "Las Enramadas",
    "country": "Nicaragua",
    "region": "Chinandega",
    "is_raining": false
  },
  {
    "coord": {
      "lat": -6.737614344782827,
      "lon": -79.38838842952524
    },
    "city": "Chongoyape",
    "country": "Peru",
    "region": "Lambayeque",
    "is_raining": false
  },
  {
    "coord": {
      "lat": 9.319081440450773,
      "lon": -84.0524207264308
    },
    "city": "Quepos",
    "country": "Costa Rica",
    "region": "Puntarenas",
    "is_raining": false
  },
  {
    "coord": {
      "lat": -0.6194395170773674,
      "lon": -80.03298518313598
    },
    "city": "Chone",
    "country": "Ecuador",
    "region": "Manabi",
    "is_raining": false
  },
  {
    "coord": {
      "lat": -5.874367849758613,
      "lon": -81.86950045267983
    },
    "city": "Kilometro Doscientos Cuarenticinco",
    "country": "Peru",
    "region": "Lambayeque",
    "is_raining": false
  },
  {
    "coord": {
      "lat": -4.240661997908688,
      "lon": -79.0938171885083
    },
    "city": "El Naque",
    "country": "Ecuador",
    "region": "Loja",
    "is_raining": true
  },
  {
    "coord": {
      "lat": 1.1873128829394375,
      "lon": -81.19018904998279
    },
    "city": "Coquito",
    "country": "Ecuador",
    "region": "Esmeraldas",
    "is_raining": false
  },
  {
    "coord": {
      "lat": -3.232257133041969,
      "lon": -79.85852100649772
    },
    "city": "Pasaje",
    "country": "Ecuador",
    "region": "El Oro",
    "is_raining": false
  },
  {
    "coord": {
      "lat": 6.491761021678073,
      "lon": -82.55416405690727
    },
    "city": "La Galera",
    "country": "Panama",
    "region": "Veraguas",
    "is_raining": true
  },
  {
    "coord": {
      "lat": 6.30651582701114,
      "lon": -83.21630580525404
    },
    "city": "Resbalosa",
    "country": "Panama",
    "region": "Chiriqui",
    "is_raining": true
  },
  {
    "coord": {
      "lat": 2.306255455617972,
      "lon": -77.28582692832528
    },
    "city": "Argelia",
    "country": "Colombia",
    "region": "Cauca",
    "is_raining": true
  },
  {
    "coord": {
      "lat": 9.74536994266606,
      "lon": -82.86138098241925
    },
    "city": "Cahuita",
    "country": "Costa Rica",
    "region": "Limon",
    "is_raining": false
  },
  {
    "coord": {
      "lat": -0.2722323849214803,
      "lon": -78.26564781920379
    },
    "city": "Hacienda Paluguillo",
    "country": "Ecuador",
    "region": "Pichincha",
    "is_raining": false
  },
  {
    "coord": {
      "lat": -7.899550964439513,
      "lon": -81.85134575324773
    },
    "city": "Kilometro Doscientos Cuarenticinco",
    "country": "Peru",
    "region": "Lambayeque",
    "is_raining": false
  },
  {
    "coord": {
      "lat": 11.164601715374559,
      "lon": -86.15789540959562
    },
    "city": "El Gigante",
    "country": "Nicaragua",
    "region": "Rivas",
    "is_raining": false
  },
  {
    "coord": {
      "lat": 10.34464461969803,
      "lon": -83.20232795076777
    },
    "city": "Jaloba",
    "country": "Costa Rica",
    "region": "Limon",
    "is_raining": false
  },
  {
    "coord": {
      "lat": 0.00662009850817924,
      "lon": -81.268284546912
    },
    "city": "Rosario",
    "country": "Ecuador",
    "region": "Manabi",
    "is_raining": false
  },
  {
    "coord": {
      "lat": -2.5170211667960274,
      "lon": -90.74837482929154
    },
    "city": "La Baronesa",
    "country": "Ecuador",
    "region": "Galapagos",
    "is_raining": false
  },
  {
    "coord": {
      "lat": 11.494157019600223,
      "lon": -85.62530602006703
    },
    "city": "Moyogalpa",
    "country": "Nicaragua",
    "region": "Rivas",
    "is_raining": false
  },
  {
    "coord": {
      "lat": 1.9404270841034474,
      "lon": -77.9953947581962
    },
    "city": "Ricarte",
    "country": "Colombia",
    "region": "Narino",
    "is_raining": false
  },
  {
    "coord": {
      "lat": 9.7878405689885,
      "lon": -85.84183393627544
    },
    "city": "Garfa",
    "country": "Costa Rica",
    "region": "Guanacaste",
    "is_raining": false
  },
  {
    "coord": {
      "lat": -5.59262918691914,
      "lon": -79.85189165216504
    },
    "city": "Pueblo Nuevo",
    "country": "Peru",
    "region": "Lambayeque",
    "is_raining": true
  },
  {
    "coord": {
      "lat": -2.7584364438463354,
      "lon": -80.3097602946302
    },
    "city": "Playas",
    "country": "Ecuador",
    "region": "Guayas",
    "is_raining": false
  },
  {
    "coord": {
      "lat": -1.5057994129490737,
      "lon": -80.89173265805942
    },
    "city": "Salango",
    "country": "Ecuador",
    "region": "Manabi",
    "is_raining": true
  },
  {
    "coord": {
      "lat": -6.228913587679372,
      "lon": -81.00465771758684
    },
    "city": "Garita",
    "country": "Peru",
    "region": "Piura",
    "is_raining": false
  },
  {
    "coord": {
      "lat": 0.5999221073970915,
      "lon": -77.20364714983305
    },
    "city": "Monopamba",
    "country": "Colombia",
    "region": "Narino",
    "is_raining": false
  },
  {
    "coord": {
      "lat": 5.217618471321714,
      "lon": -76.9890719552105
    },
    "city": "Patrocinio Cordoba",
    "country": "Colombia",
    "region": "Choco",
    "is_raining": false
  },
  {
    "coord": {
      "lat": 6.376944034818322,
      "lon": -78.18286088065521
    },
    "city": "Aguacate",
    "country": "Colombia",
    "region": "Choco",
    "is_raining": false
  },
  {
    "coord": {
      "lat": 12.78402148455558,
      "lon": -84.4563910788193
    },
    "city": "Casa De Alto",
    "country": "Nicaragua",
    "region": "Region Autonoma Atlantico Sur",
    "is_raining": false
  },
  {
    "coord": {
      "lat": 0.2059333912783785,
      "lon": -76.73926220765065
    },
    "city": "Valle Hermoso",
    "country": "Ecuador",
    "region": "Sucumbios",
    "is_raining": false
  },
  {
    "coord": {
      "lat": 11.783819603685956,
      "lon": -85.07442680335706
    },
    "city": "San Juan De Dios",
    "country": "Nicaragua",
    "region": "Chontales",
    "is_raining": false
  },
  {
    "coord": {
      "lat": -0.21581812034195025,
      "lon": -76.30188041427647
    },
    "city": "Tipishca",
    "country": "Ecuador",
    "region": "Sucumbios",
    "is_raining": true
  },
  {
    "coord": {
      "lat": -5.40793698511591,
      "lon": -76.97365805021468
    },
    "city": "Santa Maria De Cahuapanas",
    "country": "Peru",
    "region": "Loreto",
    "is_raining": false
  },
  {
    "coord": {
      "lat": -2.0087656187136957,
      "lon": -76.5486197428363
    },
    "city": "Balaura",
    "country": "Ecuador",
    "region": "Pastaza",
    "is_raining": false
  },
  {
    "coord": {
      "lat": 7.529011751661699,
      "lon": -83.39068222690366
    },
    "city": "Resbalosa",
    "country": "Panama",
    "region": "Chiriqui",
    "is_raining": true
  },
  {
    "coord": {
      "lat": 4.938201108228583,
      "lon": -78.12040964994357
    },
    "city": "Puerto Pizarro",
    "country": "Colombia",
    "region": "Choco",
    "is_raining": true
  },
  {
    "coord": {
      "lat": 9.350426765548264,
      "lon": -81.34237935357018
    },
    "city": "Rio Canaveral",
    "country": "Panama",
    "region": "Bocas del Toro",
    "is_raining": false
  },
  {
    "coord": {
      "lat": -9.501282898565265,
      "lon": -79.6036226925028
    },
    "city": "Siderurgica",
    "country": "Peru",
    "region": "Ancash",
    "is_raining": false
  },
  {
    "coord": {
      "lat": 4.000786518107731,
      "lon": -77.59405858789647
    },
    "city": "Garcia Gomez",
    "country": "Colombia",
    "region": "Choco",
    "is_raining": false
  },
  {
    "coord": {
      "lat": 14.321459994849363,
      "lon": -87.53969659350713
    },
    "city": "Flores",
    "country": "Honduras",
    "region": "Comayagua",
    "is_raining": false
  },
  {
    "coord": {
      "lat": -4.207756800575311,
      "lon": -76.01179661020373
    },
    "city": "Union",
    "country": "Peru",
    "region": "Loreto",
    "is_raining": false
  },
  {
    "coord": {
      "lat": 12.532257360734292,
      "lon": -92.26698326549251
    },
    "city": "Nueva Venecia",
    "country": "Guatemala",
    "region": "Suchitepequez",
    "is_raining": false
  },
  {
    "coord": {
      "lat": 8.441800528202364,
      "lon": -78.03351816926569
    },
    "city": "Meteti",
    "country": "Panama",
    "region": "Darien",
    "is_raining": false
  },
  {
    "coord": {
      "lat": 5.816012087803358,
      "lon": -78.71856885522166
    },
    "city": "Arusi",
    "country": "Colombia",
    "region": "Choco",
    "is_raining": true
  },
  {
    "coord": {
      "lat": 7.337500383643686,
      "lon": -81.35779276464113
    },
    "city": "El Aguacate",
    "country": "Panama",
    "region": "Veraguas",
    "is_raining": false
  },
  {
    "coord": {
      "lat": -4.849344052966401,
      "lon": -77.2133125823329
    },
    "city": "Puerto Limon",
    "country": "Peru",
    "region": "Loreto",
    "is_raining": false
  },
  {
    "coord": {
      "lat": 10.927968179877041,
      "lon": -83.59099104158607
    },
    "city": "San Juan Del Norte",
    "country": "Nicaragua",
    "region": "Rio San Juan",
    "is_raining": false
  },
  {
    "coord": {
      "lat": 12.850717692075222,
      "lon": -91.22509503672809
    },
    "city": "San Jose Rama Blanca",
    "country": "Guatemala",
    "region": "Escuintla",
    "is_raining": false
  },
  {
    "coord": {
      "lat": 7.106070969370009,
      "lon": -78.28541967102092
    },
    "city": "Cocalito",
    "country": "Panama",
    "region": "Darien",
    "is_raining": false
  },
  {
    "coord": {
      "lat": 4.645826433945288,
      "lon": -75.91052362054909
    },
    "city": "Obando",
    "country": "Colombia",
    "region": "Valle del Cauca",
    "is_raining": true
  },
  {
    "coord": {
      "lat": 14.007707262615796,
      "lon": -85.067510716851
    },
    "city": "Asabalbali",
    "country": "Nicaragua",
    "region": "Jinotega",
    "is_raining": false
  },
  {
    "coord": {
      "lat": -4.275519704114387,
      "lon": -76.73486249167527
    },
    "city": "Fernando Playas",
    "country": "Peru",
    "region": "Loreto",
    "is_raining": false
  },
  {
    "coord": {
      "lat": -1.834655217677252,
      "lon": -75.83312989154379
    },
    "city": "Tenavera",
    "country": "Ecuador",
    "region": "Pastaza",
    "is_raining": false
  },
  {
    "coord": {
      "lat": 1.2725791491191387,
      "lon": -79.6003570057424
    },
    "city": "Penas Blancas",
    "country": "Ecuador",
    "region": "Esmeraldas",
    "is_raining": false
  },
  {
    "coord": {
      "lat": 4.587575842180826,
      "lon": -79.34506237456156
    },
    "city": "El Sauce",
    "country": "Peru",
    "region": "Piura",
    "is_raining": true
  },
  {
    "coord": {
      "lat": 13.21748233642218,
      "lon": -89.03113215086968
    },
    "city": "Los Blancos",
    "country": "El Salvador",
    "region": "La Paz",
    "is_raining": true
  },
  {
    "coord": {
      "lat": -7.32406298737429,
      "lon": -79.21766059651773
    },
    "city": "Pay Pay",
    "country": "Peru",
    "region": "Cajamarca",
    "is_raining": false
  },
  {
    "coord": {
      "lat": -2.78593980579177,
      "lon": -78.5182773658789
    },
    "city": "La Chonta",
    "country": "Ecuador",
    "region": "Morona-Santiago",
    "is_raining": false
  },
  {
    "coord": {
      "lat": 9.29624216465676,
      "lon": -78.8835243092124
    },
    "city": "Canita",
    "country": "Panama",
    "region": "Panama",
    "is_raining": false
  },
  {
    "coord": {
      "lat": 13.60990984245214,
      "lon": -87.38730601709577
    },
    "city": "Pespire",
    "country": "Honduras",
    "region": "Choluteca",
    "is_raining": false
  },
  {
    "coord": {
      "lat": 3.0942662946895325,
      "lon": -76.01160054002919
    },
    "city": "Gaitania",
    "country": "Colombia",
    "region": "Tolima",
    "is_raining": true
  },
  {
    "coord": {
      "lat": -6.5284433477297625,
      "lon": -77.31083171746911
    },
    "city": "Coral",
    "country": "Peru",
    "region": "Amazonas",
    "is_raining": false
  },
  {
    "coord": {
      "lat": 2.33581927290858,
      "lon": -75.05476733945979
    },
    "city": "Santa Ana",
    "country": "Colombia",
    "region": "Caqueta",
    "is_raining": true
  },
  {
    "coord": {
      "lat": 12.28498393410085,
      "lon": -85.59113353848738
    },
    "city": "Comalapa",
    "country": "Nicaragua",
    "region": "Chontales",
    "is_raining": false
  },
  {
    "coord": {
      "lat": 12.049567155435483,
      "lon": -81.6136226314442
    },
    "city": "San Francisco",
    "country": "Colombia",
    "region": "San Andres y Providencia",
    "is_raining": false
  },
  {
    "coord": {
      "lat": 6.194396985494137,
      "lon": -77.60000071228566
    },
    "city": "Bahia Solano",
    "country": "Colombia",
    "region": "Choco",
    "is_raining": true
  },
  {
    "coord": {
      "lat": 13.25835476486455,
      "lon": -87.89659488978798
    },
    "city": "Conchagua",
    "country": "El Salvador",
    "region": "La Union",
    "is_raining": false
  },
  {
    "coord": {
      "lat": 11.845615221614864,
      "lon": -82.83892188862889
    },
    "city": "South End",
    "country": "Nicaragua",
    "region": "Region Autonoma Atlantico Sur",
    "is_raining": false
  },
  {
    "coord": {
      "lat": -3.6646749615594985,
      "lon": -76.28727628854084
    },
    "city": "Loboyacu",
    "country": "Peru",
    "region": "Loreto",
    "is_raining": false
  },
  {
    "coord": {
      "lat": 9.930189632820372,
      "lon": -78.56610752273266
    },
    "city": "Ogobpuquib",
    "country": "Panama",
    "region": "San Blas",
    "is_raining": true
  },
  {
    "coord": {
      "lat": -1.3510718365849357,
      "lon": -76.20137098277976
    },
    "city": "Mihuanoyacu",
    "country": "Ecuador",
    "region": "Orellana",
    "is_raining": false
  },
  {
    "coord": {
      "lat": -0.2876724392806551,
      "lon": -80.62468481638696
    },
    "city": "Rosario",
    "country": "Ecuador",
    "region": "Manabi",
    "is_raining": false
  },
  {
    "coord": {
      "lat": 6.941513783887416,
      "lon": -77.69624382324798
    },
    "city": "Coredo",
    "country": "Colombia",
    "region": "Choco",
    "is_raining": false
  },
  {
    "coord": {
      "lat": 9.36720957466045,
      "lon": -79.49564581258946
    },
    "city": "Salamanca",
    "country": "Panama",
    "region": "Colon",
    "is_raining": false
  },
  {
    "coord": {
      "lat": -8.291796158358437,
      "lon": -79.71622183131049
    },
    "city": "El Brujo",
    "country": "Peru",
    "region": "La Libertad",
    "is_raining": false
  },
  {
    "coord": {
      "lat": -4.661224935702066,
      "lon": -79.61006233674182
    },
    "city": "Ayabaca",
    "country": "Peru",
    "region": "Piura",
    "is_raining": false
  },
  {
    "coord": {
      "lat": 10.01713641148092,
      "lon": -79.18044299067411
    },
    "city": "Piedra De Galera",
    "country": "Panama",
    "region": "San Blas",
    "is_raining": true
  },
  {
    "coord": {
      "lat": 3.4288424670615143,
      "lon": -76.51987390015559
    },
    "city": "Cali",
    "country": "Colombia",
    "region": "Valle del Cauca",
    "is_raining": true
  },
  {
    "coord": {
      "lat": -6.513185705294816,
      "lon": -80.18041721187056
    },
    "city": "Morrope",
    "country": "Peru",
    "region": "Lambayeque",
    "is_raining": false
  },
  {
    "coord": {
      "lat": -5.973220512338287,
      "lon": -76.05782905460931
    },
    "city": "Yurimaguas",
    "country": "Peru",
    "region": "Loreto",
    "is_raining": false
  },
  {
    "coord": {
      "lat": -8.230087113666826,
      "lon": -77.64761368416254
    },
    "city": "Huataullo Hacienda",
    "country": "Peru",
    "region": "Ancash",
    "is_raining": false
  },
  {
    "coord": {
      "lat": 13.61551409176603,
      "lon": -88.55915696591799
    },
    "city": "Colon",
    "country": "El Salvador",
    "region": "Usulutan",
    "is_raining": false
  },
  {
    "coord": {
      "lat": 6.021258349252321,
      "lon": -79.93893333902292
    },
    "city": "Cambutal",
    "country": "Panama",
    "region": "Los Santos",
    "is_raining": false
  },
  {
    "coord": {
      "lat": 4.178361097932665,
      "lon": -81.36995856369067
    },
    "city": "El Sauce",
    "country": "Peru",
    "region": "Piura",
    "is_raining": false
  },
  {
    "coord": {
      "lat": -8.095633231111464,
      "lon": -78.35886075875949
    },
    "city": "Vado",
    "country": "Peru",
    "region": "La Libertad",
    "is_raining": false
  },
  {
    "coord": {
      "lat": 3.438187811076787,
      "lon": -80.18509185491111
    },
    "city": "El Sauce",
    "country": "Peru",
    "region": "Piura",
    "is_raining": false
  },
  {
    "coord": {
      "lat": 0.9642446017947606,
      "lon": -77.69536969484825
    },
    "city": "Guachucal",
    "country": "Colombia",
    "region": "Narino",
    "is_raining": true
  },
  {
    "coord": {
      "lat": 13.521525866483543,
      "lon": -89.71359779110848
    },
    "city": "Acajutla",
    "country": "El Salvador",
    "region": "Sonsonate",
    "is_raining": false
  },
  {
    "coord": {
      "lat": 1.1189089671515404,
      "lon": -74.76888767036723
    },
    "city": "San Jorge",
    "country": "Colombia",
    "region": "Caqueta",
    "is_raining": false
  },
  {
    "coord": {
      "lat": 14.614463178736415,
      "lon": -89.50914334180128
    },
    "city": "San Jacinto",
    "country": "Guatemala",
    "region": "Chiquimula",
    "is_raining": false
  },
  {
    "coord": {
      "lat": 12.097389807683015,
      "lon": -80.99081492274894
    },
    "city": "San Francisco",
    "country": "Colombia",
    "region": "San Andres y Providencia",
    "is_raining": false
  },
  {
    "coord": {
      "lat": 8.0828301376459,
      "lon": -76.85149107027623
    },
    "city": "Turbo",
    "country": "Colombia",
    "region": "Antioquia",
    "is_raining": true
  },
  {
    "coord": {
      "lat": -7.628431391737507,
      "lon": -77.7466205439339
    },
    "city": "Pucara",
    "country": "Peru",
    "region": "La Libertad",
    "is_raining": false
  },
  {
    "coord": {
      "lat": 10.981990901797758,
      "lon": -85.16234690743336
    },
    "city": "San Jose",
    "country": "Costa Rica",
    "region": "Alajuela",
    "is_raining": false
  },
  {
    "coord": {
      "lat": 5.438858229624287,
      "lon": -75.92942825354999
    },
    "city": "La Merced",
    "country": "Colombia",
    "region": "Caldas Department",
    "is_raining": true
  },
  {
    "coord": {
      "lat": -8.324864458491604,
      "lon": -76.9503665154163
    },
    "city": "Mulatambo",
    "country": "Peru",
    "region": "La Libertad",
    "is_raining": false
  },
  {
    "coord": {
      "lat": 8.95707026718054,
      "lon": -83.17722642647351
    },
    "city": "Guacimo",
    "country": "Costa Rica",
    "region": "Puntarenas",
    "is_raining": false
  },
  {
    "coord": {
      "lat": 12.66967230117345,
      "lon": -82.10798267969949
    },
    "city": "Alto Harmony Hall",
    "country": "Colombia",
    "region": "San Andres y Providencia",
    "is_raining": false
  },
  {
    "coord": {
      "lat": 2.2228644360578613,
      "lon": -78.54687910049768
    },
    "city": "Patia",
    "country": "Colombia",
    "region": "Narino",
    "is_raining": false
  },
  {
    "coord": {
      "lat": -4.259586183695561,
      "lon": -81.43263930146583
    },
    "city": "Restin",
    "country": "Peru",
    "region": "Piura",
    "is_raining": false
  },
  {
    "coord": {
      "lat": 15.07659818892769,
      "lon": -91.07183948645752
    },
    "city": "Chinique",
    "country": "Guatemala",
    "region": "Quiche",
    "is_raining": false
  },
  {
    "coord": {
      "lat": 9.808211796628086,
      "lon": -77.95519616748795
    },
    "city": "San Ignacio De Tupile",
    "country": "Panama",
    "region": "San Blas",
    "is_raining": false
  },
  {
    "coord": {
      "lat": 2.729431405303174,
      "lon": -75.52308300852528
    },
    "city": "Teruel",
    "country": "Colombia",
    "region": "Huila",
    "is_raining": true
  },
  {
    "coord": {
      "lat": 7.837679759544216,
      "lon": -78.43617485132674
    },
    "city": "Playa De Muerto",
    "country": "Panama",
    "region": "Darien",
    "is_raining": false
  },
  {
    "coord": {
      "lat": -7.099669185965709,
      "lon": -79.98442136623757
    },
    "city": "Eten Puerto",
    "country": "Peru",
    "region": "Lambayeque",
    "is_raining": false
  },
  {
    "coord": {
      "lat": 14.354366045249392,
      "lon": -96.00217389074938
    },
    "city": "Bajo De Arenal",
    "country": "Mexico",
    "region": "Oaxaca",
    "is_raining": false
  },
  {
    "coord": {
      "lat": -7.71720818168663,
      "lon": -77.03729357632507
    },
    "city": "Achiras",
    "country": "Peru",
    "region": "San Martin",
    "is_raining": false
  },
  {
    "coord": {
      "lat": 15.488773293031016,
      "lon": -90.5997663746868
    },
    "city": "La Providencia",
    "country": "Guatemala",
    "region": "Alta Verapaz",
    "is_raining": false
  },
  {
    "coord": {
      "lat": 13.199233041188236,
      "lon": -92.66372869925895
    },
    "city": "Puerto Champerico",
    "country": "Guatemala",
    "region": "Retalhuleu",
    "is_raining": false
  },
  {
    "coord": {
      "lat": 13.266986689577152,
      "lon": -82.64827902828834
    },
    "city": "Puerto Isabel",
    "country": "Nicaragua",
    "region": "Autonoma Atlantico Norte",
    "is_raining": false
  },
  {
    "coord": {
      "lat": 13.140787226589495,
      "lon": -83.26285814595983
    },
    "city": "Sandy Bay Sirpi",
    "country": "Nicaragua",
    "region": "Region Autonoma Atlantico Sur",
    "is_raining": false
  },
  {
    "coord": {
      "lat": 0.6589304376599046,
      "lon": -74.35980678989327
    },
    "city": "Renaldo Rivadeneira",
    "country": "Colombia",
    "region": "Amazonas",
    "is_raining": false
  },
  {
    "coord": {
      "lat": -3.7801889654130605,
      "lon": -77.79474228753442
    },
    "city": "Porvenir",
    "country": "Peru",
    "region": "Amazonas",
    "is_raining": false
  },
  {
    "coord": {
      "lat": 2.8739383220946877,
      "lon": -78.37343837275506
    },
    "city": "La Vigia",
    "country": "Colombia",
    "region": "Narino",
    "is_raining": false
  },
  {
    "coord": {
      "lat": -9.732097264810307,
      "lon": -78.91184008506588
    },
    "city": "Comte Noel",
    "country": "Peru",
    "region": "Ancash",
    "is_raining": false
  },
  {
    "coord": {
      "lat": -0.12874433347174374,
      "lon": -74.58210860443756
    },
    "city": "Remolino",
    "country": "Colombia",
    "region": "Putumayo",
    "is_raining": false
  },
  {
    "coord": {
      "lat": 15.302057591570858,
      "lon": -87.16807448841625
    },
    "city": "San Antonio",
    "country": "Honduras",
    "region": "Yoro",
    "is_raining": false
  },
  {
    "coord": {
      "lat": 15.337106623585129,
      "lon": -88.4867759104505
    },
    "city": "El Ciruelo",
    "country": "Honduras",
    "region": "Santa Barbara",
    "is_raining": false
  },
  {
    "coord": {
      "lat": 3.7583274111668032,
      "lon": -78.82500139337017
    },
    "city": "La Vigia",
    "country": "Colombia",
    "region": "Narino",
    "is_raining": true
  },
  {
    "coord": {
      "lat": 12.3305692669269,
      "lon": -89.89073788595982
    },
    "city": "Club Salinitas",
    "country": "El Salvador",
    "region": "Sonsonate",
    "is_raining": false
  },
  {
    "coord": {
      "lat": -7.91803243951766,
      "lon": -79.08567030087241
    },
    "city": "Santiago De Cao",
    "country": "Peru",
    "region": "La Libertad",
    "is_raining": false
  },
  {
    "coord": {
      "lat": 9.555404286232587,
      "lon": -83.46081053536115
    },
    "city": "Urinama",
    "country": "Costa Rica",
    "region": "Limon",
    "is_raining": true
  },
  {
    "coord": {
      "lat": 15.629052011399097,
      "lon": -89.27976412988498
    },
    "city": "El Estor",
    "country": "Guatemala",
    "region": "Izabal",
    "is_raining": false
  },
  {
    "coord": {
      "lat": 1.9721433383864735,
      "lon": -76.77686481164413
    },
    "city": "La Vega",
    "country": "Colombia",
    "region": "Cauca",
    "is_raining": true
  },
  {
    "coord": {
      "lat": 13.983498908387645,
      "lon": -88.06144704672731
    },
    "city": "Los Planes",
    "country": "Honduras",
    "region": "La Paz",
    "is_raining": false
  },
  {
    "coord": {
      "lat": 14.699890666435778,
      "lon": -85.13957798174826
    },
    "city": "Casamacoa",
    "country": "Honduras",
    "region": "Olancho",
    "is_raining": false
  },
  {
    "coord": {
      "lat": 9.891545473317251,
      "lon": -84.37441117202582
    },
    "city": "Santiago",
    "country": "Costa Rica",
    "region": "San Jose",
    "is_raining": false
  },
  {
    "coord": {
      "lat": -5.365520751530767,
      "lon": -80.70650983470182
    },
    "city": "La Arena",
    "country": "Peru",
    "region": "Piura",
    "is_raining": false
  },
  {
    "coord": {
      "lat": 3.2953063688656954,
      "lon": -77.68383081543763
    },
    "city": "El Aticito",
    "country": "Colombia",
    "region": "Valle del Cauca",
    "is_raining": false
  },
  {
    "coord": {
      "lat": 14.449048922209784,
      "lon": -90.73607926159427
    },
    "city": "Palin",
    "country": "Guatemala",
    "region": "Escuintla",
    "is_raining": false
  },
  {
    "coord": {
      "lat": 4.234600913873251,
      "lon": -78.15929078183946
    },
    "city": "Garcia Gomez",
    "country": "Colombia",
    "region": "Choco",
    "is_raining": true
  },
  {
    "coord": {
      "lat": -3.037532352991832,
      "lon": -73.60484251992412
    },
    "city": "Paleta",
    "country": "Peru",
    "region": "Loreto",
    "is_raining": false
  },
  {
    "coord": {
      "lat": 16.022998640537494,
      "lon": -85.3814600588806
    },
    "city": "Punta De Piedra",
    "country": "Honduras",
    "region": "Colon",
    "is_raining": false
  },
  {
    "coord": {
      "lat": 15.37117942858464,
      "lon": -85.24482258045215
    },
    "city": "Las Mangas",
    "country": "Honduras",
    "region": "Colon",
    "is_raining": false
  },
  {
    "coord": {
      "lat": 12.564980331734276,
      "lon": -82.72383912693046
    },
    "city": "South End",
    "country": "Nicaragua",
    "region": "Region Autonoma Atlantico Sur",
    "is_raining": false
  },
  {
    "coord": {
      "lat": -2.1502774295965423,
      "lon": -77.30061938286902
    },
    "city": "Jivaro Chumbela",
    "country": "Ecuador",
    "region": "Pastaza",
    "is_raining": false
  },
  {
    "coord": {
      "lat": -2.683090800421283,
      "lon": -74.51630827465965
    },
    "city": "Puerto Copal",
    "country": "Peru",
    "region": "Loreto",
    "is_raining": false
  },
  {
    "coord": {
      "lat": -0.8927326142452188,
      "lon": -74.84610520609182
    },
    "city": "Torres Causano",
    "country": "Peru",
    "region": "Loreto",
    "is_raining": false
  },
  {
    "coord": {
      "lat": 13.35888897089481,
      "lon": -82.0240241262132
    },
    "city": "Ayacucho",
    "country": "Colombia",
    "region": "San Andres y Providencia",
    "is_raining": false
  },
  {
    "coord": {
      "lat": -1.6306247957431168,
      "lon": -75.1502962474943
    },
    "city": "Posto Ecuatoriano",
    "country": "Peru",
    "region": "Loreto",
    "is_raining": false
  },
  {
    "coord": {
      "lat": 15.154358705265949,
      "lon": -85.84652749785946
    },
    "city": "San Esteban",
    "country": "Honduras",
    "region": "Olancho",
    "is_raining": false
  },
  {
    "coord": {
      "lat": 11.382603579078534,
      "lon": -79.29498784898637
    },
    "city": "El Cano",
    "country": "Panama",
    "region": "Colon",
    "is_raining": true
  },
  {
    "coord": {
      "lat": -5.342310257577424,
      "lon": -75.55244535732996
    },
    "city": "Lagunas",
    "country": "Peru",
    "region": "Loreto",
    "is_raining": false
  },
  {
    "coord": {
      "lat": 4.182003384894045,
      "lon": -76.45800239935491
    },
    "city": "Trujillo",
    "country": "Colombia",
    "region": "Valle del Cauca",
    "is_raining": true
  },
  {
    "coord": {
      "lat": 1.4678191347863816,
      "lon": -74.1805908483255
    },
    "city": "Candilejas",
    "country": "Colombia",
    "region": "Caqueta",
    "is_raining": false
  },
  {
    "coord": {
      "lat": 2.7287185273978025,
      "lon": -74.48973706630008
    },
    "city": "Bajo Pato",
    "country": "Colombia",
    "region": "Caqueta",
    "is_raining": true
  },
  {
    "coord": {
      "lat": 14.937054761786456,
      "lon": -94.82188295748377
    },
    "city": "Garrapateras",
    "country": "Mexico",
    "region": "Oaxaca",
    "is_raining": false
  },
  {
    "coord": {
      "lat": 0.34351253580662444,
      "lon": -74.97379656989612
    },
    "city": "Numal",
    "country": "Colombia",
    "region": "Putumayo",
    "is_raining": false
  },
  {
    "coord": {
      "lat": -3.018825891601253,
      "lon": -75.87268032780963
    },
    "city": "Pampa Hermosa",
    "country": "Peru",
    "region": "Loreto",
    "is_raining": false
  },
  {
    "coord": {
      "lat": 14.083252452365514,
      "lon": -81.33407852851639
    },
    "city": "Jacob",
    "country": "Colombia",
    "region": "San Andres y Providencia",
    "is_raining": false
  },
  {
    "coord": {
      "lat": 6.23963707815615,
      "lon": -75.99578211599678
    },
    "city": "Betulia",
    "country": "Colombia",
    "region": "Antioquia",
    "is_raining": true
  },
  {
    "coord": {
      "lat": 14.936342603154557,
      "lon": -93.97368000405736
    },
    "city": "Campamento De Conserv. De La Tortuga Marina",
    "country": "Mexico",
    "region": "Chiapas",
    "is_raining": false
  },
  {
    "coord": {
      "lat": 5.940536712882462,
      "lon": -75.4543930499485
    },
    "city": "Montebello",
    "country": "Colombia",
    "region": "Antioquia",
    "is_raining": true
  },
  {
    "coord": {
      "lat": 15.422511809225483,
      "lon": -93.5798530210441
    },
    "city": "Campamento De Conserv. De La Tortuga Marina",
    "country": "Mexico",
    "region": "Chiapas",
    "is_raining": false
  },
  {
    "coord": {
      "lat": 0.17497892794212078,
      "lon": -73.97357774395874
    },
    "city": "Puerto Huitoto",
    "country": "Colombia",
    "region": "Caqueta",
    "is_raining": false
  },
  {
    "coord": {
      "lat": 16.203744756059933,
      "lon": -84.75194081947515
    },
    "city": "Paplaya",
    "country": "Honduras",
    "region": "Gracias a Dios",
    "is_raining": false
  },
  {
    "coord": {
      "lat": 7.59091376239671,
      "lon": -75.70614108630642
    },
    "city": "El Suspiro",
    "country": "Colombia",
    "region": "Cordoba",
    "is_raining": true
  },
  {
    "coord": {
      "lat": 14.887293927678371,
      "lon": -95.67884025919265
    },
    "city": "Valerio Martinez",
    "country": "Mexico",
    "region": "Oaxaca",
    "is_raining": false
  },
  {
    "coord": {
      "lat": 13.953355105304269,
      "lon": -82.6095029667499
    },
    "city": "Awastara",
    "country": "Nicaragua",
    "region": "Autonoma Atlantico Norte",
    "is_raining": false
  },
  {
    "coord": {
      "lat": 10.058218316205085,
      "lon": -81.03041869075123
    },
    "city": "Barrio Nuevo",
    "country": "Costa Rica",
    "region": "Limon",
    "is_raining": false
  },
  {
    "coord": {
      "lat": 1.5952910441364736,
      "lon": -78.76318926292008
    },
    "city": "Guachal",
    "country": "Colombia",
    "region": "Narino",
    "is_raining": false
  },
  {
    "coord": {
      "lat": 10.66240097662245,
      "lon": -78.90603370664253
    },
    "city": "Waisalatupo",
    "country": "Panama",
    "region": "San Blas",
    "is_raining": true
  },
  {
    "coord": {
      "lat": 16.578818302518243,
      "lon": -89.02725378633139
    },
    "city": "Arabato Camp",
    "country": "Belize",
    "region": "Cayo",
    "is_raining": false
  },
  {
    "coord": {
      "lat": -10.718382340627159,
      "lon": -79.63842211717771
    },
    "city": "Puerto Huarmey",
    "country": "Peru",
    "region": "Ancash",
    "is_raining": false
  },
  {
    "coord": {
      "lat": -10.955625185914727,
      "lon": -78.97351342354811
    },
    "city": "Bermejo",
    "country": "Peru",
    "region": "Ancash",
    "is_raining": false
  },
  {
    "coord": {
      "lat": 1.9615188839263737,
      "lon": -75.65413225468146
    },
    "city": "Guadalupe",
    "country": "Colombia",
    "region": "Huila",
    "is_raining": true
  },
  {
    "coord": {
      "lat": 3.135354016694521,
      "lon": -74.95352481980787
    },
    "city": "Baraya",
    "country": "Colombia",
    "region": "Huila",
    "is_raining": true
  },
  {
    "coord": {
      "lat": 12.73925886996625,
      "lon": -81.48414606019054
    },
    "city": "San Andres",
    "country": "Colombia",
    "region": "San Andres y Providencia",
    "is_raining": false
  },
  {
    "coord": {
      "lat": 14.432514254564637,
      "lon": -94.33602303780796
    },
    "city": "Costa Azul",
    "country": "Mexico",
    "region": "Chiapas",
    "is_raining": false
  },
  {
    "coord": {
      "lat": 14.739290690258414,
      "lon": -81.30939628020337
    },
    "city": "Jacob Ladder",
    "country": "Colombia",
    "region": "San Andres y Providencia",
    "is_raining": false
  },
  {
    "coord": {
      "lat": -1.4079469532438225,
      "lon": -72.95574582334207
    },
    "city": "Monatoy",
    "country": "Colombia",
    "region": "Amazonas",
    "is_raining": false
  },
  {
    "coord": {
      "lat": 9.240705495757084,
      "lon": -76.15594418027705
    },
    "city": "Monitas",
    "country": "Colombia",
    "region": "Cordoba",
    "is_raining": true
  },
  {
    "coord": {
      "lat": 15.183316970247006,
      "lon": -97.09154361823674
    },
    "city": "De La Rosa",
    "country": "Mexico",
    "region": "Oaxaca",
    "is_raining": false
  },
  {
    "coord": {
      "lat": 9.188984972531244,
      "lon": -78.27528869691791
    },
    "city": "Pirrea",
    "country": "Panama",
    "region": "Panama",
    "is_raining": false
  },
  {
    "coord": {
      "lat": 8.869758519625677,
      "lon": -77.0755020153998
    },
    "city": "Bobal",
    "country": "Colombia",
    "region": "Antioquia",
    "is_raining": true
  },
  {
    "coord": {
      "lat": 12.789265959223556,
      "lon": -89.47561116633338
    },
    "city": "Canton Pimiental",
    "country": "El Salvador",
    "region": "La Paz",
    "is_raining": true
  },
  {
    "coord": {
      "lat": 15.970974303279604,
      "lon": -88.74340250378015
    },
    "city": "Livingston",
    "country": "Guatemala",
    "region": "Izabal",
    "is_raining": false
  },
  {
    "coord": {
      "lat": -7.768153119418585,
      "lon": -76.34320190445322
    },
    "city": "Jose Olaya",
    "country": "Peru",
    "region": "San Martin",
    "is_raining": false
  },
  {
    "coord": {
      "lat": 5.6533169920682695,
      "lon": -78.1280446374463
    },
    "city": "Arusi",
    "country": "Colombia",
    "region": "Choco",
    "is_raining": true
  },
  {
    "coord": {
      "lat": 8.143472032865702,
      "lon": -75.33556095290984
    },
    "city": "Villa Fatima",
    "country": "Colombia",
    "region": "Cordoba",
    "is_raining": true
  },
  {
    "coord": {
      "lat": 17.384978035993043,
      "lon": -90.24463982677077
    },
    "city": "Paso Caballos",
    "country": "Guatemala",
    "region": "Peten",
    "is_raining": false
  },
  {
    "coord": {
      "lat": 16.825352538040192,
      "lon": -89.89817758309368
    },
    "city": "San Francisco",
    "country": "Guatemala",
    "region": "Peten",
    "is_raining": false
  },
  {
    "coord": {
      "lat": 5.740015907303871,
      "lon": -73.97246882422931
    },
    "city": "Tunungua",
    "country": "Colombia",
    "region": "Boyaca Department",
    "is_raining": true
  },
  {
    "coord": {
      "lat": 15.812278599141194,
      "lon": -85.99501018640251
    },
    "city": "La Brea",
    "country": "Honduras",
    "region": "Colon",
    "is_raining": false
  },
  {
    "coord": {
      "lat": -8.38280828043439,
      "lon": -76.2660008683767
    },
    "city": "Uchiza",
    "country": "Peru",
    "region": "San Martin",
    "is_raining": false
  },
  {
    "coord": {
      "lat": -1.8461853811988362,
      "lon": -89.73221928525642
    },
    "city": "La Baronesa",
    "country": "Ecuador",
    "region": "Galapagos",
    "is_raining": false
  },
  {
    "coord": {
      "lat": 7.045305917134172,
      "lon": -76.11032257850647
    },
    "city": "Dabeiba",
    "country": "Colombia",
    "region": "Antioquia",
    "is_raining": false
  },
  {
    "coord": {
      "lat": 15.890162835347141,
      "lon": -93.15559256881437
    },
    "city": "El Progreso",
    "country": "Mexico",
    "region": "Chiapas",
    "is_raining": false
  },
  {
    "coord": {
      "lat": -3.7250532409554324,
      "lon": -81.88288668364422
    },
    "city": "Chacaritas",
    "country": "Peru",
    "region": "Piura",
    "is_raining": false
  },
  {
    "coord": {
      "lat": 0.9960651042744075,
      "lon": -73.77566221367873
    },
    "city": "Santa Rita",
    "country": "Colombia",
    "region": "Caqueta",
    "is_raining": false
  },
  {
    "coord": {
      "lat": -5.93097690258891,
      "lon": -75.36824203540172
    },
    "city": "Macnin Tipishca",
    "country": "Peru",
    "region": "Loreto",
    "is_raining": false
  },
  {
    "coord": {
      "lat": 9.825571222685795,
      "lon": -75.85810553291405
    },
    "city": "El Islote",
    "country": "Colombia",
    "region": "Sucre",
    "is_raining": true
  },
  {
    "coord": {
      "lat": 0.7912249308543693,
      "lon": -75.38934233349946
    },
    "city": "Solano",
    "country": "Colombia",
    "region": "Caqueta",
    "is_raining": true
  },
  {
    "coord": {
      "lat": 2.224075325075745,
      "lon": -73.09155721529676
    },
    "city": "Santa Teresa",
    "country": "Colombia",
    "region": "Amazonas",
    "is_raining": false
  },
  {
    "coord": {
      "lat": -0.6635745016697143,
      "lon": -75.89130699832036
    },
    "city": "Capitan Rivadeneira",
    "country": "Ecuador",
    "region": "Orellana",
    "is_raining": false
  },
  {
    "coord": {
      "lat": -4.8295401825346715,
      "lon": -72.94904349815488
    },
    "city": "Aucayaquilla",
    "country": "Peru",
    "region": "Loreto",
    "is_raining": false
  },
  {
    "coord": {
      "lat": 5.122334213696519,
      "lon": -75.40126266962525
    },
    "city": "Manizales",
    "country": "Colombia",
    "region": "Caldas Department",
    "is_raining": true
  },
  {
    "coord": {
      "lat": 16.98105351005276,
      "lon": -84.2504373354528
    },
    "city": "Tabacunta",
    "country": "Honduras",
    "region": "Gracias a Dios",
    "is_raining": false
  },
  {
    "coord": {
      "lat": 17.759025434193134,
      "lon": -88.14744660300212
    },
    "city": "Caye Corker",
    "country": "Belize",
    "region": "Belize",
    "is_raining": false
  },
  {
    "coord": {
      "lat": -6.369881815815376,
      "lon": -73.90048529843872
    },
    "city": "Clemente",
    "country": "Peru",
    "region": "Loreto",
    "is_raining": false
  },
  {
    "coord": {
      "lat": -12.075195301745993,
      "lon": -77.10957648447895
    },
    "city": "Callao",
    "country": "Peru",
    "region": "Callao",
    "is_raining": false
  },
  {
    "coord": {
      "lat": -4.010591284560576,
      "lon": -72.53222651557398
    },
    "city": "Puerto Desengano",
    "country": "Peru",
    "region": "Loreto",
    "is_raining": false
  },
  {
    "coord": {
      "lat": 15.720582374917385,
      "lon": -96.74605462356328
    },
    "city": "Escobilla",
    "country": "Mexico",
    "region": "Oaxaca",
    "is_raining": false
  },
  {
    "coord": {
      "lat": -8.40629441225768,
      "lon": -75.59371942007559
    },
    "city": "David",
    "country": "Peru",
    "region": "Loreto",
    "is_raining": false
  },
  {
    "coord": {
      "lat": 14.747797535807479,
      "lon": -80.65082889854875
    },
    "city": "Jacob",
    "country": "Colombia",
    "region": "San Andres y Providencia",
    "is_raining": false
  },
  {
    "coord": {
      "lat": -11.3161780353865,
      "lon": -77.65588543303136
    },
    "city": "El Vergel",
    "country": "Peru",
    "region": "Lima",
    "is_raining": false
  },
  {
    "coord": {
      "lat": 1.3535717571265593,
      "lon": -73.21937043623285
    },
    "city": "Porvenir",
    "country": "Colombia",
    "region": "Caqueta",
    "is_raining": false
  },
  {
    "coord": {
      "lat": 7.297625599517147,
      "lon": -75.14991922272563
    },
    "city": "Tami",
    "country": "Colombia",
    "region": "Antioquia",
    "is_raining": true
  },
  {
    "coord": {
      "lat": 10.506635372074044,
      "lon": -82.60244277950598
    },
    "city": "Piuta",
    "country": "Costa Rica",
    "region": "Limon",
    "is_raining": false
  },
  {
    "coord": {
      "lat": 15.557307680641188,
      "lon": -84.62709151121662
    },
    "city": "Okra Bank",
    "country": "Honduras",
    "region": "Gracias a Dios",
    "is_raining": false
  },
  {
    "coord": {
      "lat": 2.6912982524034703,
      "lon": -76.62652784605596
    },
    "city": "Cajibio",
    "country": "Colombia",
    "region": "Cauca",
    "is_raining": true
  },
  {
    "coord": {
      "lat": 15.571867569250188,
      "lon": -86.59105855002001
    },
    "city": "Olanchito",
    "country": "Honduras",
    "region": "Yoro",
    "is_raining": false
  },
  {
    "coord": {
      "lat": 11.475197008215659,
      "lon": -76.5846245242973
    },
    "city": "Punta Canoas",
    "country": "Colombia",
    "region": "Bolivar Department",
    "is_raining": true
  },
  {
    "coord": {
      "lat": -12.388271359633407,
      "lon": -78.52994824541963
    },
    "city": "Base Naval",
    "country": "Peru",
    "region": "Callao",
    "is_raining": false
  },
  {
    "coord": {
      "lat": 16.563602426098186,
      "lon": -82.78295640054851
    },
    "city": "Diamanta",
    "country": "Honduras",
    "region": "Gracias a Dios",
    "is_raining": false
  },
  {
    "coord": {
      "lat": -0.3316499925382175,
      "lon": -73.61057548031114
    },
    "city": "Ultimo Retiro",
    "country": "Colombia",
    "region": "Amazonas",
    "is_raining": false
  },
  {
    "coord": {
      "lat": 8.65910561958242,
      "lon": -79.24315661892524
    },
    "city": "Saboga",
    "country": "Panama",
    "region": "Panama",
    "is_raining": false
  },
  {
    "coord": {
      "lat": 6.750849151067115,
      "lon": -73.17364491452552
    },
    "city": "Jordan",
    "country": "Colombia",
    "region": "Santander",
    "is_raining": true
  },
  {
    "coord": {
      "lat": 16.396353970243652,
      "lon": -94.5187170560648
    },
    "city": "Los Nanches",
    "country": "Mexico",
    "region": "Oaxaca",
    "is_raining": false
  },
  {
    "coord": {
      "lat": -1.1138232175830325,
      "lon": -72.38095064630775
    },
    "city": "Araras De Coemas",
    "country": "Colombia",
    "region": "Amazonas",
    "is_raining": false
  },
  {
    "coord": {
      "lat": 15.546950388852068,
      "lon": -97.65292190417485
    },
    "city": "Laguna De Chacahua",
    "country": "Mexico",
    "region": "Oaxaca",
    "is_raining": true
  },
  {
    "coord": {
      "lat": 15.804831663338831,
      "lon": -92.28493496983607
    },
    "city": "Nueva Reforma",
    "country": "Mexico",
    "region": "Chiapas",
    "is_raining": false
  },
  {
    "coord": {
      "lat": 4.947975948717726,
      "lon": -76.44190684258605
    },
    "city": "Novita",
    "country": "Colombia",
    "region": "Choco",
    "is_raining": true
  },
  {
    "coord": {
      "lat": 4.864080997213776,
      "lon": -73.9188696131326
    },
    "city": "Guasca",
    "country": "Colombia",
    "region": "Cundinamarca",
    "is_raining": false
  },
  {
    "coord": {
      "lat": 18.06769850354202,
      "lon": -91.57842067921632
    },
    "city": "San Lazarito",
    "country": "Mexico",
    "region": "Tabasco",
    "is_raining": true
  },
  {
    "coord": {
      "lat": 17.72181554097321,
      "lon": -89.67155538113701
    },
    "city": "Dos Lagunas",
    "country": "Guatemala",
    "region": "Peten",
    "is_raining": false
  },
  {
    "coord": {
      "lat": -12.178472768208096,
      "lon": -76.46565571957395
    },
    "city": "Tres Quebradas",
    "country": "Peru",
    "region": "Lima",
    "is_raining": false
  },
  {
    "coord": {
      "lat": 15.836809280410776,
      "lon": -83.34983106604942
    },
    "city": "Tay Lirila",
    "country": "Honduras",
    "region": "Gracias a Dios",
    "is_raining": false
  },
  {
    "coord": {
      "lat": 14.005889280197252,
      "lon": -91.16584165618885
    },
    "city": "La Gomera",
    "country": "Guatemala",
    "region": "Escuintla",
    "is_raining": false
  },
  {
    "coord": {
      "lat": 10.414105646192624,
      "lon": -75.59117385157134
    },
    "city": "Cartagena",
    "country": "Colombia",
    "region": "Bolivar Department",
    "is_raining": true
  },
  {
    "coord": {
      "lat": 1.2129385519843083,
      "lon": -75.82850038981108
    },
    "city": "Valparaiso",
    "country": "Colombia",
    "region": "Caqueta",
    "is_raining": false
  },
  {
    "coord": {
      "lat": 9.395621710054257,
      "lon": -80.72638180262844
    },
    "city": "Cocle Del Norte",
    "country": "Panama",
    "region": "Colon",
    "is_raining": false
  },
  {
    "coord": {
      "lat": -10.900995899518307,
      "lon": -76.27343513480606
    },
    "city": "Tinyahuarco",
    "country": "Peru",
    "region": "Pasco",
    "is_raining": false
  },
  {
    "coord": {
      "lat": -5.258638830927524,
      "lon": -74.8737226566747
    },
    "city": "Hamburgo",
    "country": "Peru",
    "region": "Loreto",
    "is_raining": false
  },
  {
    "coord": {
      "lat": -10.329181651355086,
      "lon": -74.92326144940965
    },
    "city": "Charapa",
    "country": "Peru",
    "region": "Pasco",
    "is_raining": false
  },
  {
    "coord": {
      "lat": -5.144084585332905,
      "lon": -74.21425950543707
    },
    "city": "Bretana",
    "country": "Peru",
    "region": "Loreto",
    "is_raining": false
  },
  {
    "coord": {
      "lat": 7.852977027029453,
      "lon": -76.27368298925565
    },
    "city": "Gallo",
    "country": "Colombia",
    "region": "Cordoba",
    "is_raining": false
  },
  {
    "coord": {
      "lat": 7.50484669727426,
      "lon": -74.22858148605975
    },
    "city": "Guamoco",
    "country": "Colombia",
    "region": "Bolivar Department",
    "is_raining": true
  },
  {
    "coord": {
      "lat": -1.8549388770620254,
      "lon": -90.83439523777257
    },
    "city": "La Baronesa",
    "country": "Ecuador",
    "region": "Galapagos",
    "is_raining": false
  },
  {
    "coord": {
      "lat": 16.088669385942183,
      "lon": -97.2980667947837
    },
    "city": "Las Trancas",
    "country": "Mexico",
    "region": "Oaxaca",
    "is_raining": false
  },
  {
    "coord": {
      "lat": 18.25896239171965,
      "lon": -90.02980448091822
    },
    "city": "La Esperanza",
    "country": "Mexico",
    "region": "Campeche",
    "is_raining": false
  },
  {
    "coord": {
      "lat": 14.081611091120294,
      "lon": -80.03256286055151
    },
    "city": "Mcbeans",
    "country": "Colombia",
    "region": "San Andres y Providencia",
    "is_raining": false
  },
  {
    "coord": {
      "lat": 13.416819034593019,
      "lon": -81.39171164421529
    },
    "city": "Jacob Ladder",
    "country": "Colombia",
    "region": "San Andres y Providencia",
    "is_raining": false
  },
  {
    "coord": {
      "lat": 14.239519317548485,
      "lon": -96.84357289234698
    },
    "city": "Zapote",
    "country": "Mexico",
    "region": "Oaxaca",
    "is_raining": false
  },
  {
    "coord": {
      "lat": 9.267962345107577,
      "lon": -74.68768154029064
    },
    "city": "Cicuco",
    "country": "Colombia",
    "region": "Bolivar Department",
    "is_raining": false
  },
  {
    "coord": {
      "lat": -0.22945217763809467,
      "lon": -72.14165996782073
    },
    "city": "El Guamo",
    "country": "Colombia",
    "region": "Caqueta",
    "is_raining": false
  },
  {
    "coord": {
      "lat": 8.417339453194074,
      "lon": -75.90603299342655
    },
    "city": "Maracaibo",
    "country": "Colombia",
    "region": "Cordoba",
    "is_raining": false
  },
  {
    "coord": {
      "lat": 3.5140151376623976,
      "lon": -75.43654573437117
    },
    "city": "Ataco",
    "country": "Colombia",
    "region": "Tolima",
    "is_raining": true
  },
  {
    "coord": {
      "lat": 8.279457181980405,
      "lon": -77.43847637110647
    },
    "city": "Yape",
    "country": "Panama",
    "region": "Darien",
    "is_raining": false
  },
  {
    "coord": {
      "lat": -8.288889372888974,
      "lon": -73.64461031720528
    },
    "city": "Abujao",
    "country": "Peru",
    "region": "Ucayali",
    "is_raining": false
  },
  {
    "coord": {
      "lat": -6.466093475484811,
      "lon": -74.54960037377388
    },
    "city": "Sungaro",
    "country": "Peru",
    "region": "Loreto",
    "is_raining": false
  },
  {
    "coord": {
      "lat": 16.449853566771523,
      "lon": -86.17358758838985
    },
    "city": "Barbareta",
    "country": "Honduras",
    "region": "Islas de la Bahia",
    "is_raining": false
  },
  {
    "coord": {
      "lat": 5.831276924058159,
      "lon": -73.05795982677806
    },
    "city": "Duitama",
    "country": "Colombia",
    "region": "Boyaca Department",
    "is_raining": false
  },
  {
    "coord": {
      "lat": 18.16213071568228,
      "lon": -92.55999701120042
    },
    "city": "Romulo Cachon Ponce (Hormiguero)",
    "country": "Mexico",
    "region": "Tabasco",
    "is_raining": false
  },
  {
    "coord": {
      "lat": 15.055347054395654,
      "lon": -83.91249090043159
    },
    "city": "Auka",
    "country": "Honduras",
    "region": "Gracias a Dios",
    "is_raining": false
  },
  {
    "coord": {
      "lat": -6.0932361544298885,
      "lon": -72.64643397348615
    },
    "city": "Toledo",
    "country": "Brazil",
    "region": "Amazonas",
    "is_raining": false
  },
  {
    "coord": {
      "lat": -0.8596998770468929,
      "lon": -73.27117452695616
    },
    "city": "Faiajenes",
    "country": "Colombia",
    "region": "Amazonas",
    "is_raining": false
  },
  {
    "coord": {
      "lat": -2.4726122684307086,
      "lon": -73.87631164515581
    },
    "city": "Yanchama",
    "country": "Peru",
    "region": "Loreto",
    "is_raining": false
  },
  {
    "coord": {
      "lat": 16.34707831761655,
      "lon": -95.44154307420257
    },
    "city": "Nopalera",
    "country": "Mexico",
    "region": "Oaxaca",
    "is_raining": true
  },
  {
    "coord": {
      "lat": -10.536815102440272,
      "lon": -78.25388525657698
    },
    "city": "Gramadal",
    "country": "Peru",
    "region": "Ancash",
    "is_raining": false
  },
  {
    "coord": {
      "lat": 14.993595034372603,
      "lon": -97.97616065960489
    },
    "city": "Barra Quebrada",
    "country": "Mexico",
    "region": "Oaxaca",
    "is_raining": true
  },
  {
    "coord": {
      "lat": -5.6166734662496225,
      "lon": -73.4057181108576
    },
    "city": "Purma Pobreza",
    "country": "Peru",
    "region": "Loreto",
    "is_raining": false
  },
  {
    "coord": {
      "lat": 15.283974544093525,
      "lon": -82.63377487643417
    },
    "city": "Tuibila",
    "country": "Honduras",
    "region": "Gracias a Dios",
    "is_raining": false
  },
  {
    "coord": {
      "lat": 11.436245437205784,
      "lon": -80.5447920747034
    },
    "city": "San Francisco",
    "country": "Colombia",
    "region": "San Andres y Providencia",
    "is_raining": false
  },
  {
    "coord": {
      "lat": -5.4552706856825495,
      "lon": -72.78411707726329
    },
    "city": "Colonia Angamos",
    "country": "Peru",
    "region": "Loreto",
    "is_raining": false
  },
  {
    "coord": {
      "lat": -10.265015006058547,
      "lon": -76.22434991584491
    },
    "city": "Ambo",
    "country": "Peru",
    "region": "Huanuco",
    "is_raining": false
  },
  {
    "coord": {
      "lat": -3.7793067502331326,
      "lon": -71.94094975387942
    },
    "city": "Huanta",
    "country": "Peru",
    "region": "Loreto",
    "is_raining": false
  },
  {
    "coord": {
      "lat": 16.96130244254887,
      "lon": -97.46734508792854
    },
    "city": "Union Y Progreso",
    "country": "Mexico",
    "region": "Oaxaca",
    "is_raining": false
  },
  {
    "coord": {
      "lat": -11.567918257762855,
      "lon": -79.05590446958766
    },
    "city": "Aquashuarco",
    "country": "Peru",
    "region": "Lima",
    "is_raining": false
  },
  {
    "coord": {
      "lat": 17.317695885694093,
      "lon": -93.59530222359348
    },
    "city": "Nueva Esperanza",
    "country": "Mexico",
    "region": "Chiapas",
    "is_raining": false
  },
  {
    "coord": {
      "lat": -1.9259722687836813,
      "lon": -74.17382445669519
    },
    "city": "Providencia",
    "country": "Peru",
    "region": "Loreto",
    "is_raining": false
  },
  {
    "coord": {
      "lat": 9.561961922681817,
      "lon": -75.26819466251385
    },
    "city": "Ovejas",
    "country": "Colombia",
    "region": "Sucre",
    "is_raining": false
  },
  {
    "coord": {
      "lat": 5.341481972201706,
      "lon": -73.47446568226671
    },
    "city": "Nuevo Colon",
    "country": "Colombia",
    "region": "Boyaca Department",
    "is_raining": false
  },
  {
    "coord": {
      "lat": 11.256071570705402,
      "lon": -75.96582275455854
    },
    "city": "Arroyo De Piedra",
    "country": "Colombia",
    "region": "Bolivar Department",
    "is_raining": true
  },
  {
    "coord": {
      "lat": 4.775592252348758,
      "lon": -74.88876767175847
    },
    "city": "Venadillo",
    "country": "Colombia",
    "region": "Tolima",
    "is_raining": true
  },
  {
    "coord": {
      "lat": -4.632611081215046,
      "lon": -72.341793887627
    },
    "city": "Colonia Barros",
    "country": "Peru",
    "region": "Loreto",
    "is_raining": false
  },
  {
    "coord": {
      "lat": 7.272024433716979,
      "lon": -72.81476281268552
    },
    "city": "Mutiscua",
    "country": "Colombia",
    "region": "Norte de Santander",
    "is_raining": false
  },
  {
    "coord": {
      "lat": 11.006043487301469,
      "lon": -75.35372584135321
    },
    "city": "Galerazamba",
    "country": "Colombia",
    "region": "Bolivar Department",
    "is_raining": false
  },
  {
    "coord": {
      "lat": 17.871276896763703,
      "lon": -85.9656656280716
    },
    "city": "Black Rock",
    "country": "Honduras",
    "region": "Islas de la Bahia",
    "is_raining": false
  },
  {
    "coord": {
      "lat": -2.897608829193885,
      "lon": -71.58313326105181
    },
    "city": "Tambo Salvador",
    "country": "Peru",
    "region": "Loreto",
    "is_raining": false
  },
  {
    "coord": {
      "lat": -2.3400789288022565,
      "lon": -75.49306651075102
    },
    "city": "Tigre",
    "country": "Peru",
    "region": "Loreto",
    "is_raining": false
  },
  {
    "coord": {
      "lat": 6.239968403032407,
      "lon": -73.55913826470835
    },
    "city": "La Paz",
    "country": "Colombia",
    "region": "Santander",
    "is_raining": true
  },
  {
    "coord": {
      "lat": 18.553120104727455,
      "lon": -92.00268976834792
    },
    "city": "Las Palmitas",
    "country": "Mexico",
    "region": "Campeche",
    "is_raining": false
  },
  {
    "coord": {
      "lat": -1.6911317665003907,
      "lon": -72.09069110305157
    },
    "city": "Condar",
    "country": "Colombia",
    "region": "Amazonas",
    "is_raining": false
  },
  {
    "coord": {
      "lat": 5.396061427048778,
      "lon": -72.57277971351944
    },
    "city": "Pajarito",
    "country": "Colombia",
    "region": "Boyaca Department",
    "is_raining": false
  },
  {
    "coord": {
      "lat": 15.350617370551817,
      "lon": -81.97902637685834
    },
    "city": "Tuibila",
    "country": "Honduras",
    "region": "Gracias a Dios",
    "is_raining": false
  },
  {
    "coord": {
      "lat": 15.525370272238703,
      "lon": -100.66446968100517
    },
    "city": "Corvillo",
    "country": "Mexico",
    "region": "Guerrero",
    "is_raining": false
  },
  {
    "coord": {
      "lat": 18.0179779725527,
      "lon": -87.52163458998201
    },
    "city": "Bacalar Chico",
    "country": "Belize",
    "region": "Belize",
    "is_raining": false
  },
  {
    "coord": {
      "lat": -13.335251905771926,
      "lon": -77.41802715436454
    },
    "city": "Santa Barbara Hacienda",
    "country": "Peru",
    "region": "Lima",
    "is_raining": false
  },
  {
    "coord": {
      "lat": 2.000736272457928,
      "lon": -71.31738191575698
    },
    "city": "Kiniquiari",
    "country": "Colombia",
    "region": "Guaviare",
    "is_raining": false
  },
  {
    "coord": {
      "lat": -9.004679290746338,
      "lon": -76.22054203627879
    },
    "city": "San Miguel",
    "country": "Peru",
    "region": "Huanuco",
    "is_raining": false
  },
  {
    "coord": {
      "lat": 10.426811196640784,
      "lon": -77.67226963896529
    },
    "city": "San Ignacio De Tupile",
    "country": "Panama",
    "region": "San Blas",
    "is_raining": true
  },
  {
    "coord": {
      "lat": 6.452458682020946,
      "lon": -75.01401616861448
    },
    "city": "San Roque",
    "country": "Colombia",
    "region": "Antioquia",
    "is_raining": true
  },
  {
    "coord": {
      "lat": -5.000510092486792,
      "lon": -73.57297948671787
    },
    "city": "Puerto Velasquez",
    "country": "Peru",
    "region": "Loreto",
    "is_raining": false
  },
  {
    "coord": {
      "lat": -1.3851632654860708,
      "lon": -71.5367850559617
    },
    "city": "Mequeranio",
    "country": "Colombia",
    "region": "Amazonas",
    "is_raining": false
  },
  {
    "coord": {
      "lat": -12.178939543594694,
      "lon": -79.17206771918427
    },
    "city": "Aquashuarco",
    "country": "Peru",
    "region": "Lima",
    "is_raining": false
  },
  {
    "coord": {
      "lat": 15.29792973057944,
      "lon": -100.05560945853065
    },
    "city": "Corvillo",
    "country": "Mexico",
    "region": "Guerrero",
    "is_raining": false
  },
  {
    "coord": {
      "lat": 16.656436291202866,
      "lon": -85.54798176926703
    },
    "city": "East End",
    "country": "Honduras",
    "region": "Islas de la Bahia",
    "is_raining": false
  },
  {
    "coord": {
      "lat": 2.5368962603215124,
      "lon": -71.70274554409129
    },
    "city": "Tomachipan",
    "country": "Colombia",
    "region": "Guaviare",
    "is_raining": false
  },
  {
    "coord": {
      "lat": 18.116955602927234,
      "lon": -95.57384345917258
    },
    "city": "Las Maravillas",
    "country": "Mexico",
    "region": "Veracruz-Llave",
    "is_raining": true
  },
  {
    "coord": {
      "lat": 17.248978645688354,
      "lon": -95.52403627420013
    },
    "city": "Arroyo Aguacate",
    "country": "Mexico",
    "region": "Oaxaca",
    "is_raining": false
  },
  {
    "coord": {
      "lat": 12.462255214651861,
      "lon": -75.59250528170737
    },
    "city": "Hacienda Maizal",
    "country": "Colombia",
    "region": "Atlantico",
    "is_raining": false
  },
  {
    "coord": {
      "lat": 14.989313123422122,
      "lon": -89.01037819490918
    },
    "city": "Buenos Aires",
    "country": "Honduras",
    "region": "Copan",
    "is_raining": false
  },
  {
    "coord": {
      "lat": 0.3194047858727487,
      "lon": -72.47864701193869
    },
    "city": "Cunare",
    "country": "Colombia",
    "region": "Caqueta",
    "is_raining": false
  },
  {
    "coord": {
      "lat": 17.132737196686605,
      "lon": -96.49573926055236
    },
    "city": "Piedra De Amole",
    "country": "Mexico",
    "region": "Oaxaca",
    "is_raining": false
  },
  {
    "coord": {
      "lat": -9.671834314802922,
      "lon": -75.54730080984378
    },
    "city": "Codo Del Pozuzo",
    "country": "Peru",
    "region": "Huanuco",
    "is_raining": false
  },
  {
    "coord": {
      "lat": -8.858056647734713,
      "lon": -72.9903294754721
    },
    "city": "Tabocal",
    "country": "Brazil",
    "region": "Acre",
    "is_raining": false
  },
  {
    "coord": {
      "lat": 18.573077562687374,
      "lon": -89.42232210465708
    },
    "city": "Las Carolinas",
    "country": "Mexico",
    "region": "Campeche",
    "is_raining": false
  },
  {
    "coord": {
      "lat": 16.180305872310498,
      "lon": -98.80553055783736
    },
    "city": "Punta Maldonado",
    "country": "Mexico",
    "region": "Guerrero",
    "is_raining": false
  },
  {
    "coord": {
      "lat": 15.615199176887842,
      "lon": -99.14485681532928
    },
    "city": "Punta Maldonado",
    "country": "Mexico",
    "region": "Guerrero",
    "is_raining": false
  },
  {
    "coord": {
      "lat": 18.18768495350899,
      "lon": -94.5614653288279
    },
    "city": "Angel Negro",
    "country": "Mexico",
    "region": "Veracruz-Llave",
    "is_raining": true
  },
  {
    "coord": {
      "lat": 17.920436448842608,
      "lon": -90.61445418652694
    },
    "city": "Vicente Guerrero Numero 2",
    "country": "Mexico",
    "region": "Campeche",
    "is_raining": false
  },
  {
    "coord": {
      "lat": -7.640116756167174,
      "lon": -73.70106942151332
    },
    "city": "Acampamento",
    "country": "Brazil",
    "region": "Acre",
    "is_raining": true
  },
  {
    "coord": {
      "lat": -7.534078297485308,
      "lon": -73.07150154263059
    },
    "city": "Barao De Rio Branco",
    "country": "Brazil",
    "region": "Acre",
    "is_raining": false
  },
  {
    "coord": {
      "lat": 14.211021141536037,
      "lon": -84.47217909075376
    },
    "city": "Bonanza Bodega",
    "country": "Nicaragua",
    "region": "Autonoma Atlantico Norte",
    "is_raining": false
  },
  {
    "coord": {
      "lat": 7.510091539882126,
      "lon": -77.25374669983974
    },
    "city": "Riosucio",
    "country": "Colombia",
    "region": "Choco",
    "is_raining": false
  },
  {
    "coord": {
      "lat": -6.574205679840503,
      "lon": -71.93055787143784
    },
    "city": "Ipixuna",
    "country": "Brazil",
    "region": "Amazonas",
    "is_raining": false
  },
  {
    "coord": {
      "lat": 17.16206003861359,
      "lon": -89.33702400447964
    },
    "city": "Laguna Yaxja",
    "country": "Guatemala",
    "region": "Peten",
    "is_raining": false
  },
  {
    "coord": {
      "lat": 6.97407559336456,
      "lon": -74.6060336551353
    },
    "city": "Remedios",
    "country": "Colombia",
    "region": "Antioquia",
    "is_raining": true
  },
  {
    "coord": {
      "lat": 19.125040033708828,
      "lon": -88.14370801080855
    },
    "city": "Ninguno [Corredor Fruticola]",
    "country": "Mexico",
    "region": "Quintana Roo",
    "is_raining": false
  },
  {
    "coord": {
      "lat": 18.862015283680435,
      "lon": -88.79320927908195
    },
    "city": "Huatusco",
    "country": "Mexico",
    "region": "Quintana Roo",
    "is_raining": false
  },
  {
    "coord": {
      "lat": 10.258717547229963,
      "lon": -77.06138245192027
    },
    "city": "Caserio Puerto Limon",
    "country": "Colombia",
    "region": "Cordoba",
    "is_raining": true
  },
  {
    "coord": {
      "lat": 0.11667986037596734,
      "lon": -71.6101596971436
    },
    "city": "Berlin",
    "country": "Colombia",
    "region": "Vaupes",
    "is_raining": false
  },
  {
    "coord": {
      "lat": -5.267974197515997,
      "lon": -72.17784755326774
    },
    "city": "Franklin",
    "country": "Brazil",
    "region": "Amazonas",
    "is_raining": false
  },
  {
    "coord": {
      "lat": 5.251656800624517,
      "lon": -74.4150951152572
    },
    "city": "La Pena",
    "country": "Colombia",
    "region": "Cundinamarca",
    "is_raining": true
  },
  {
    "coord": {
      "lat": 9.046492312876524,
      "lon": -77.67220275192601
    },
    "city": "Mulatupo",
    "country": "Panama",
    "region": "San Blas",
    "is_raining": true
  },
  {
    "coord": {
      "lat": 16.474274648761735,
      "lon": -83.45114591370795
    },
    "city": "Tabacunta",
    "country": "Honduras",
    "region": "Gracias a Dios",
    "is_raining": false
  },
  {
    "coord": {
      "lat": 17.989706857452532,
      "lon": -96.58886533928306
    },
    "city": "Aguacate",
    "country": "Mexico",
    "region": "Oaxaca",
    "is_raining": true
  },
  {
    "coord": {
      "lat": -8.945189183397574,
      "lon": -73.61719186389944
    },
    "city": "Indio Piro",
    "country": "Peru",
    "region": "Ucayali",
    "is_raining": false
  },
  {
    "coord": {
      "lat": -9.658099166358653,
      "lon": -74.25346837719118
    },
    "city": "Tres Unidos",
    "country": "Peru",
    "region": "Ucayali",
    "is_raining": false
  },
  {
    "coord": {
      "lat": 15.670558809897983,
      "lon": -91.4319118468951
    },
    "city": "Soloma",
    "country": "Guatemala",
    "region": "Huehuetenango",
    "is_raining": false
  },
  {
    "coord": {
      "lat": 18.432572376810768,
      "lon": -91.00663014074735
    },
    "city": "El Zacatecano",
    "country": "Mexico",
    "region": "Campeche",
    "is_raining": false
  },
  {
    "coord": {
      "lat": -13.455264916673514,
      "lon": -76.78298218807652
    },
    "city": "Santa Barbara Hacienda",
    "country": "Peru",
    "region": "Lima",
    "is_raining": false
  },
  {
    "coord": {
      "lat": 14.893445145175804,
      "lon": -84.53328632385613
    },
    "city": "Rus Rus",
    "country": "Honduras",
    "region": "Gracias a Dios",
    "is_raining": false
  },
  {
    "coord": {
      "lat": 17.177363912966968,
      "lon": -87.86194224955823
    },
    "city": "Dangriga",
    "country": "Belize",
    "region": "Stann Creek",
    "is_raining": false
  },
  {
    "coord": {
      "lat": 14.867598340133384,
      "lon": -90.27751671666002
    },
    "city": "El Jicaro",
    "country": "Guatemala",
    "region": "El Progreso",
    "is_raining": false
  },
  {
    "coord": {
      "lat": 16.24466849200266,
      "lon": -96.36920519769681
    },
    "city": "La Reforma",
    "country": "Mexico",
    "region": "Oaxaca",
    "is_raining": false
  },
  {
    "coord": {
      "lat": 17.80559754505174,
      "lon": -97.60265825845357
    },
    "city": "Las Palomas",
    "country": "Mexico",
    "region": "Oaxaca",
    "is_raining": false
  },
  {
    "coord": {
      "lat": 19.020128693121194,
      "lon": -86.48932264229067
    },
    "city": "Ziquipal",
    "country": "Mexico",
    "region": "Quintana Roo",
    "is_raining": false
  },
  {
    "coord": {
      "lat": 14.786408541381434,
      "lon": -96.54106120983114
    },
    "city": "Zipolite",
    "country": "Mexico",
    "region": "Oaxaca",
    "is_raining": false
  },
  {
    "coord": {
      "lat": -14.090414207371865,
      "lon": -76.98846141692997
    },
    "city": "Lagunilla",
    "country": "Peru",
    "region": "Ica",
    "is_raining": false
  },
  {
    "coord": {
      "lat": 3.050825025186583,
      "lon": -72.10826709864865
    },
    "city": "Mapiripan",
    "country": "Colombia",
    "region": "Meta",
    "is_raining": false
  },
  {
    "coord": {
      "lat": -13.184854249751893,
      "lon": -78.0530782449655
    },
    "city": "Colonia Penal",
    "country": "Peru",
    "region": "Callao",
    "is_raining": false
  },
  {
    "coord": {
      "lat": 1.9148344061506464,
      "lon": -74.60711442850558
    },
    "city": "Campo Hermoso",
    "country": "Colombia",
    "region": "Caqueta",
    "is_raining": false
  },
  {
    "coord": {
      "lat": 4.924605654311719,
      "lon": -71.24918459103638
    },
    "city": "Orocue",
    "country": "Colombia",
    "region": "Casanare",
    "is_raining": false
  },
  {
    "coord": {
      "lat": 16.866153127922217,
      "lon": -94.07144088925803
    },
    "city": "Nuevo San Juan",
    "country": "Mexico",
    "region": "Oaxaca",
    "is_raining": false
  },
  {
    "coord": {
      "lat": 9.50728611322944,
      "lon": -73.83049738024907
    },
    "city": "Astrea",
    "country": "Colombia",
    "region": "Cesar",
    "is_raining": true
  },
  {
    "coord": {
      "lat": 7.802888067804204,
      "lon": -72.48145390136736
    },
    "city": "Villa Del Rosario",
    "country": "Colombia",
    "region": "Norte de Santander",
    "is_raining": true
  },
  {
    "coord": {
      "lat": 17.85159649988853,
      "lon": -82.3445845487109
    },
    "city": "Lambert House",
    "country": "Cayman Islands",
    "region": "",
    "is_raining": false
  },
  {
    "coord": {
      "lat": 17.59346744728971,
      "lon": -84.42112168183901
    },
    "city": "Pueblo Nuevo",
    "country": "Honduras",
    "region": "Gracias a Dios",
    "is_raining": false
  },
  {
    "coord": {
      "lat": 17.667889394937234,
      "lon": -86.615676013068
    },
    "city": "Bacalar Chico",
    "country": "Belize",
    "region": "Belize",
    "is_raining": false
  },
  {
    "coord": {
      "lat": 2.9649683466279555,
      "lon": -71.24419669294844
    },
    "city": "El Olvido",
    "country": "Colombia",
    "region": "Meta",
    "is_raining": false
  },
  {
    "coord": {
      "lat": 16.338429872375315,
      "lon": -92.70193914991964
    },
    "city": "Plan De Los Angeles",
    "country": "Mexico",
    "region": "Chiapas",
    "is_raining": false
  },
  {
    "coord": {
      "lat": -10.982261960203573,
      "lon": -74.98060494243991
    },
    "city": "Alto Puyeni",
    "country": "Peru",
    "region": "Junin",
    "is_raining": false
  },
  {
    "coord": {
      "lat": 19.091714487184163,
      "lon": -89.79209929337034
    },
    "city": "El Eden",
    "country": "Mexico",
    "region": "Campeche",
    "is_raining": false
  },
  {
    "coord": {
      "lat": 0.8656992036911504,
      "lon": -70.60949127888257
    },
    "city": "Puerto Galvis",
    "country": "Colombia",
    "region": "Vaupes",
    "is_raining": false
  },
  {
    "coord": {
      "lat": 16.639916559324988,
      "lon": -91.31753616905308
    },
    "city": "Plan De Guadalupe",
    "country": "Mexico",
    "region": "Chiapas",
    "is_raining": false
  },
  {
    "coord": {
      "lat": -11.637922825520903,
      "lon": -75.0683490927956
    },
    "city": "Viena",
    "country": "Peru",
    "region": "Junin",
    "is_raining": false
  },
  {
    "coord": {
      "lat": 3.988461392322833,
      "lon": -72.08137562232187
    },
    "city": "Providencia",
    "country": "Colombia",
    "region": "Meta",
    "is_raining": false
  },
  {
    "coord": {
      "lat": 18.480844631569937,
      "lon": -96.10546823272887
    },
    "city": "El Coyolar",
    "country": "Mexico",
    "region": "Veracruz-Llave",
    "is_raining": true
  },
  {
    "coord": {
      "lat": -2.6109652874598765,
      "lon": -71.02697167826872
    },
    "city": "Santa Catalina",
    "country": "Peru",
    "region": "Loreto",
    "is_raining": false
  },
  {
    "coord": {
      "lat": -13.961682403272604,
      "lon": -77.6196073697313
    },
    "city": "El Sequion",
    "country": "Peru",
    "region": "Ica",
    "is_raining": false
  },
  {
    "coord": {
      "lat": 3.541521317088666,
      "lon": -72.53331774596764
    },
    "city": "Mararay",
    "country": "Colombia",
    "region": "Meta",
    "is_raining": false
  },
  {
    "coord": {
      "lat": -14.58411981769909,
      "lon": -77.85261979312438
    },
    "city": "Laguna Grande",
    "country": "Peru",
    "region": "Ica",
    "is_raining": false
  },
  {
    "coord": {
      "lat": 7.3681503467835086,
      "lon": -71.96390255361784
    },
    "city": "La Horqueta",
    "country": "Venezuela",
    "region": "Apure",
    "is_raining": false
  },
  {
    "coord": {
      "lat": -11.643891677002188,
      "lon": -74.43232088961456
    },
    "city": "Mazaronquiari",
    "country": "Peru",
    "region": "Junin",
    "is_raining": false
  },
  {
    "coord": {
      "lat": 5.610837568840083,
      "lon": -74.92721178356886
    },
    "city": "Norcasia",
    "country": "Colombia",
    "region": "Caldas Department",
    "is_raining": true
  },
  {
    "coord": {
      "lat": -10.185222634424477,
      "lon": -76.88528569126797
    },
    "city": "Jancahuayi",
    "country": "Peru",
    "region": "Ancash",
    "is_raining": false
  },
  {
    "coord": {
      "lat": 16.73450810078525,
      "lon": -98.43511127341345
    },
    "city": "Acatepec",
    "country": "Mexico",
    "region": "Guerrero",
    "is_raining": true
  },
  {
    "coord": {
      "lat": -7.766554487811163,
      "lon": -74.99658517037236
    },
    "city": "Roaboya",
    "country": "Peru",
    "region": "Loreto",
    "is_raining": false
  },
  {
    "coord": {
      "lat": 16.426268025546563,
      "lon": -97.86133728006656
    },
    "city": "Santa Maria Yosocani",
    "country": "Mexico",
    "region": "Oaxaca",
    "is_raining": true
  },
  {
    "coord": {
      "lat": -12.817553746650034,
      "lon": -76.6087003696496
    },
    "city": "Mala",
    "country": "Peru",
    "region": "Lima",
    "is_raining": false
  },
  {
    "coord": {
      "lat": 3.1097541290283175,
      "lon": -73.01049336454042
    },
    "city": "Candilejas",
    "country": "Colombia",
    "region": "Meta",
    "is_raining": false
  },
  {
    "coord": {
      "lat": -7.783869824873179,
      "lon": -75.6632351272159
    },
    "city": "David",
    "country": "Peru",
    "region": "Loreto",
    "is_raining": false
  },
  {
    "coord": {
      "lat": -5.05600991631205,
      "lon": -71.58652796950963
    },
    "city": "Franklin",
    "country": "Brazil",
    "region": "Amazonas",
    "is_raining": false
  },
  {
    "coord": {
      "lat": -10.275702784476024,
      "lon": -73.650124432138
    },
    "city": "Tranquilidad",
    "country": "Peru",
    "region": "Ucayali",
    "is_raining": false
  },
  {
    "coord": {
      "lat": 2.6940531030290487,
      "lon": -73.51414135964889
    },
    "city": "Guani",
    "country": "Colombia",
    "region": "Meta",
    "is_raining": false
  },
  {
    "coord": {
      "lat": -7.170020385556768,
      "lon": -75.76369184037692
    },
    "city": "Shamboyacu",
    "country": "Peru",
    "region": "San Martin",
    "is_raining": false
  },
  {
    "coord": {
      "lat": 11.313878364681685,
      "lon": -74.53187076433679
    },
    "city": "La Atascosa",
    "country": "Colombia",
    "region": "Magdalena Department",
    "is_raining": false
  },
  {
    "coord": {
      "lat": 16.078901237129088,
      "lon": -90.94686517639627
    },
    "city": "Cruz Grande",
    "country": "Mexico",
    "region": "Chiapas",
    "is_raining": false
  },