[
  {
    "coord": {
      "lat": -0.27471194740874694,
      "lon": -81.34842031811196
    },
    "city": "San Mateo",
    "country": "Ecuador",
    "region": "Manabi",
    "is_raining": false
  },
  {
    "coord": {
      "lat": -1.783637606536601,
      "lon": -80.013013643154
    },
    "city": "Daule",
    "country": "Ecuador",
    "region": "Guayas",
    "is_raining": true
  },
  {
    "coord": {
      "lat": 11.974830455040944,
      "lon": -87.84969580983525
    },
    "city": "Puerto Zapote",
    "country": "Nicaragua",
    "region": "Chinandega",
    "is_raining": true
  },
  {
    "coord": {
      "lat": -3.4626255351634256,
      "lon": -76.02033356641927
    },
    "city": "Minchana",
    "country": "Peru",
    "region": "Loreto",
    "is_raining": false
  },
  {
    "coord": {
      "lat": 1.8858439339237663,
      "lon": -76.10937685486451
    },
    "city": "Pitalito",
    "country": "Colombia",
    "region": "Huila",
    "is_raining": true
  },
  {
    "coord": {
      "lat": -5.632169061880745,
      "lon": -80.93756367378938
    },
    "city": "Sechura",
    "country": "Peru",
    "region": "Piura",
    "is_raining": true
  },
  {
    "coord": {
      "lat": 7.896933453120965,
      "lon": -84.7427172575819
    },
    "city": "San Pedrillo",
    "country": "Costa Rica",
    "region": "Puntarenas",
    "is_raining": true
  },
  {
    "coord": {
      "lat": -0.451092271206079,
      "lon": -77.53824467736189
    },
    "city": "Sumaco",
    "country": "Ecuador",
    "region": "Napo",
    "is_raining": true
  },
  {
    "coord": {
      "lat": 0.7038085034847512,
      "lon": -89.69085213201194
    },
    "city": "Seymour",
    "country": "Ecuador",
    "region": "Galapagos",
    "is_raining": false
  },
  {
    "coord": {
      "lat": -0.30445042710461223,
      "lon": -92.60815530084226
    },
    "city": "Santo Tomas",
    "country": "Ecuador",
    "region": "Galapagos",
    "is_raining": false
  },
  {
    "coord": {
      "lat": 9.276759275576296,
      "lon": -86.93563632832057
    },
    "city": "Puerto San Juanillo",
    "country": "Costa Rica",
    "region": "Guanacaste",
    "is_raining": true
  },
  {
    "coord": {
      "lat": 6.82579186311402,
      "lon": -82.45257676091951
    },
    "city": "La Galera",
    "country": "Panama",
    "region": "Veraguas",
    "is_raining": true
  },
  {
    "coord": {
      "lat": 13.056561002377933,
      "lon": -81.61321894366738
    },
    "city": "Morris Hill",
    "country": "Colombia",
    "region": "San Andres y Providencia",
    "is_raining": false
  },
  {
    "coord": {
      "lat": 9.700552337936728,
      "lon": -79.51079409324119
    },
    "city": "El Cano",
    "country": "Panama",
    "region": "Colon",
    "is_raining": false
  },
  {
    "coord": {
      "lat": -2.318441128956138,
      "lon": -91.38385506793242
    },
    "city": "La Baronesa",
    "country": "Ecuador",
    "region": "Galapagos",
    "is_raining": false
  },
  {
    "coord": {
      "lat": -1.4628748823545124,
      "lon": -89.8363715669994
    },
    "city": "Friedo",
    "country": "Ecuador",
    "region": "Galapagos",
    "is_raining": false
  },
  {
    "coord": {
      "lat": 9.723431994067198,
      "lon": -86.43763933844616
    },
    "city": "Puerto San Juanillo",
    "country": "Costa Rica",
    "region": "Guanacaste",
    "is_raining": true
  },
  {
    "coord": {
      "lat": -1.6291813961592396,
      "lon": -78.23882874770744
    },
    "city": "Huamboya",
    "country": "Ecuador",
    "region": "Morona-Santiago",
    "is_raining": true
  },
  {
    "coord": {
      "lat": 14.135602985707692,
      "lon": -83.4082900313615
    },
    "city": "Puerto Cabezas",
    "country": "Nicaragua",
    "region": "Autonoma Atlantico Norte",
    "is_raining": false
  },
  {
    "coord": {
      "lat": 9.055094621074346,
      "lon": -80.46351853890842
    },
    "city": "Platanal",
    "country": "Panama",
    "region": "Colon",
    "is_raining": false
  },
  {
    "coord": {
      "lat": -0.30794786694784193,
      "lon": -91.52794538904821
    },
    "city": "Santo Tomas",
    "country": "Ecuador",
    "region": "Galapagos",
    "is_raining": false
  },
  {
    "coord": {
      "lat": 2.9813657210158198,
      "lon": -76.46469873337388
    },
    "city": "Santander De Quilichao",
    "country": "Colombia",
    "region": "Cauca",
    "is_raining": true
  },
  {
    "coord": {
      "lat": 1.3984407349705066,
      "lon": -80.889240154993
    },
    "city": "Galera",
    "country": "Ecuador",
    "region": "Esmeraldas",
    "is_raining": false
  },
  {
    "coord": {
      "lat": 10.466331924601192,
      "lon": -83.85412880248718
    },
    "city": "Tigre",
    "country": "Costa Rica",
    "region": "Heredia",
    "is_raining": false
  },
  {
    "coord": {
      "lat": 7.4487486439316655,
      "lon": -82.55854024487802
    },
    "city": "El Caimito",
    "country": "Panama",
    "region": "Veraguas",
    "is_raining": false
  },
  {
    "coord": {
      "lat": -5.890033686050103,
      "lon": -80.08706948919344
    },
    "city": "Ficuar Ciudad",
    "country": "Peru",
    "region": "Lambayeque",
    "is_raining": true
  },
  {
    "coord": {
      "lat": 13.774688887770779,
      "lon": -86.40654418232204
    },
    "city": "Dipilto",
    "country": "Nicaragua",
    "region": "Nueva Segovia",
    "is_raining": false
  },
  {
    "coord": {
      "lat": 12.28283009762417,
      "lon": -82.33994173039014
    },
    "city": "Piscinita",
    "country": "Colombia",
    "region": "San Andres y Providencia",
    "is_raining": false
  },
  {
    "coord": {
      "lat": 12.274200070719345,
      "lon": -86.2866979382679
    },
    "city": "Managua",
    "country": "Nicaragua",
    "region": "Managua",
    "is_raining": true
  },
  {
    "coord": {
      "lat": -2.1433005151861693,
      "lon": -81.51010578283113
    },
    "city": "Chinchipe",
    "country": "Ecuador",
    "region": "Guayas",
    "is_raining": false
  },
  {
    "coord": {
      "lat": 9.653487720769192,
      "lon": -84.08433187334705
    },
    "city": "San Marcos De Tarrazu",
    "country": "Costa Rica",
    "region": "San Jose",
    "is_raining": false
  },
  {
    "coord": {
      "lat": -2.575173330413662,
      "lon": -88.9741070325899
    },
    "city": "San Cristobal",
    "country": "Ecuador",
    "region": "Galapagos",
    "is_raining": false
  },
  {
    "coord": {
      "lat": 14.012980437141124,
      "lon": -94.18812201745698
    },
    "city": "Pasito De La Senora",
    "country": "Mexico",
    "region": "Chiapas",
    "is_raining": true
  },
  {
    "coord": {
      "lat": -1.7869931259068892,
      "lon": -81.01540591166248
    },
    "city": "Entrada",
    "country": "Ecuador",
    "region": "Guayas",
    "is_raining": false
  },
  {
    "coord": {
      "lat": 1.945240898176749,
      "lon": -71.66928797208686
    },
    "city": "Tomachipan",
    "country": "Colombia",
    "region": "Guaviare",
    "is_raining": false
  },
  {
    "coord": {
      "lat": -1.0265171954126942,
      "lon": -90.24990981349413
    },
    "city": "Friedo",
    "country": "Ecuador",
    "region": "Galapagos",
    "is_raining": false
  },
  {
    "coord": {
      "lat": 2.632562178033325,
      "lon": -75.9664435464199
    },
    "city": "Belalcazar",
    "country": "Colombia",
    "region": "Cauca",
    "is_raining": true
  },
  {
    "coord": {
      "lat": -0.29614632498403637,
      "lon": -89.12487011294866
    },
    "city": "Progreso",
    "country": "Ecuador",
    "region": "Galapagos",
    "is_raining": false
  },
  {
    "coord": {
      "lat": 15.825811496005187,
      "lon": -84.86237918936618
    },
    "city": "Limonal",
    "country": "Honduras",
    "region": "Gracias a Dios",
    "is_raining": false
  },
  {
    "coord": {
      "lat": 8.476298948975057,
      "lon": -83.53643772751396
    },
    "city": "Madrigal",
    "country": "Costa Rica",
    "region": "Puntarenas",
    "is_raining": true
  },
  {
    "coord": {
      "lat": 12.365244135348291,
      "lon": -87.36556370240625
    },
    "city": "Puerto Zapote",
    "country": "Nicaragua",
    "region": "Chinandega",
    "is_raining": true
  },
  {
    "coord": {
      "lat": -5.11028382394089,
      "lon": -78.98333848973233
    },
    "city": "San Ignacio",
    "country": "Peru",
    "region": "Cajamarca",
    "is_raining": true
  },
  {
    "coord": {
      "lat": -10.05488793573386,
      "lon": -73.33217609205914
    },
    "city": "Tambo Gregorio",
    "country": "Peru",
    "region": "Ucayali",
    "is_raining": false
  },
  {
    "coord": {
      "lat": 17.299998144814424,
      "lon": -86.6713091817139
    },
    "city": "Punta Blaca",
    "country": "Honduras",
    "region": "Islas de la Bahia",
    "is_raining": false
  },
  {
    "coord": {
      "lat": 15.249894584162362,
      "lon": -91.3750051973903
    },
    "city": "Aguacatan",
    "country": "Guatemala",
    "region": "Huehuetenango",
    "is_raining": false
  },
  {
    "coord": {
      "lat": 8.903069421632424,
      "lon": -78.62630412691216
    },
    "city": "Ipeti",
    "country": "Panama",
    "region": "Panama",
    "is_raining": false
  },
  {
    "coord": {
      "lat": 10.074244382362664,
      "lon": -82.8990225877164
    },
    "city": "Limon",
    "country": "Costa Rica",
    "region": "Limon",
    "is_raining": false
  },
  {
    "coord": {
      "lat": 14.157868616176557,
      "lon": -89.5099193760623
    },
    "city": "Texistepeque",
    "country": "El Salvador",
    "region": "Santa Ana",
    "is_raining": true
  },
  {
    "coord": {
      "lat": 12.369403091858317,
      "lon": -81.72207695585358
    },
    "city": "El Cove",
    "country": "Colombia",
    "region": "San Andres y Providencia",
    "is_raining": false
  },
  {
    "coord": {
      "lat": -1.6661611638741647,
      "lon": -91.32483795990875
    },
    "city": "Puerto Villamil",
    "country": "Ecuador",
    "region": "Galapagos",
    "is_raining": false
  },
  {
    "coord": {
      "lat": -1.4218047409167411,
      "lon": -88.50098591729603
    },
    "city": "El Progreso",
    "country": "Ecuador",
    "region": "Galapagos",
    "is_raining": false
  },
  {
    "coord": {
      "lat": 8.800901795066522,
      "lon": -84.37654094605205
    },
    "city": "Puerto Quepos",
    "country": "Costa Rica",
    "region": "Puntarenas",
    "is_raining": false
  },
  {
    "coord": {
      "lat": 1.5438688966042378,
      "lon": -77.99379255333552
    },
    "city": "Yacare",
    "country": "Colombia",
    "region": "Narino",
    "is_raining": true
  },
  {
    "coord": {
      "lat": -0.9224851761600377,
      "lon": -90.96015413786336
    },
    "city": "Puerto Villamil",
    "country": "Ecuador",
    "region": "Galapagos",
    "is_raining": false
  },
  {
    "coord": {
      "lat": -0.36364266306217985,
      "lon": -88.13473090870087
    },
    "city": "La Hacienda",
    "country": "Ecuador",
    "region": "Galapagos",
    "is_raining": false
  },
  {
    "coord": {
      "lat": -4.721901812340889,
      "lon": -82.21049794303595
    },
    "city": "Seccion Dieciocho",
    "country": "Peru",
    "region": "Piura",
    "is_raining": false
  },
  {
    "coord": {
      "lat": 3.7151033398791213,
      "lon": -79.984058441836
    },
    "city": "El Sauce",
    "country": "Peru",
    "region": "Piura",
    "is_raining": true
  },
  {
    "coord": {
      "lat": 1.7408498691655723,
      "lon": -79.95283237608434
    },
    "city": "Volcan Chimborazo",
    "country": "Ecuador",
    "region": "Esmeraldas",
    "is_raining": false
  },
  {
    "coord": {
      "lat": 8.656764295542203,
      "lon": -85.78198110952674
    },
    "city": "Carmen",
    "country": "Costa Rica",
    "region": "Puntarenas",
    "is_raining": false
  },
  {
    "coord": {
      "lat": -2.0238623153382065,
      "lon": -88.62873145405882
    },
    "city": "San Cristobal",
    "country": "Ecuador",
    "region": "Galapagos",
    "is_raining": false
  },
  {
    "coord": {
      "lat": 11.218311977148232,
      "lon": -76.87007789007494
    },
    "city": "Punta Canoas",
    "country": "Colombia",
    "region": "Bolivar Department",
    "is_raining": false
  },
  {
    "coord": {
      "lat": -0.14079171404934243,
      "lon": -75.0148591983977
    },
    "city": "Boyaca",
    "country": "Colombia",
    "region": "Putumayo",
    "is_raining": true
  },
  {
    "coord": {
      "lat": 11.787483952960045,
      "lon": -89.88312010113529
    },
    "city": "Club Salinitas",
    "country": "El Salvador",
    "region": "Sonsonate",
    "is_raining": true
  },
  {
    "coord": {
      "lat": 14.191628124892517,
      "lon": -91.45173563679495
    },
    "city": "Pueblo Nuevo Tiquisate",
    "country": "Guatemala",
    "region": "Escuintla",
    "is_raining": false
  },
  {
    "coord": {
      "lat": 1.9370509283501747,
      "lon": -80.59354312955661
    },
    "city": "Galera",
    "country": "Ecuador",
    "region": "Esmeraldas",
    "is_raining": false
  },
  {
    "coord": {
      "lat": 0.032875825992590535,
      "lon": -88.6204931652754
    },
    "city": "El Progreso",
    "country": "Ecuador",
    "region": "Galapagos",
    "is_raining": false
  },
  {
    "coord": {
      "lat": -4.432172638804289,
      "lon": -80.15585159252491
    },
    "city": "Saucillo",
    "country": "Peru",
    "region": "Piura",
    "is_raining": true
  },
  {
    "coord": {
      "lat": 9.772684869179784,
      "lon": -87.31868139032203
    },
    "city": "Venado",
    "country": "Costa Rica",
    "region": "Guanacaste",
    "is_raining": true
  },
  {
    "coord": {
      "lat": -1.5756435195871177,
      "lon": -91.93819877810839
    },
    "city": "Puerto Villamil",
    "country": "Ecuador",
    "region": "Galapagos",
    "is_raining": false
  },
  {
    "coord": {
      "lat": -0.8719443724756815,
      "lon": -77.09529841451646
    },
    "city": "Boca Suno",
    "country": "Ecuador",
    "region": "Orellana",
    "is_raining": true
  },
  {
    "coord": {
      "lat": 12.26661571767876,
      "lon": -89.4846054073183
    },
    "city": "El Zapote",
    "country": "El Salvador",
    "region": "La Paz",
    "is_raining": true
  },
  {
    "coord": {
      "lat": 0.035584496429251544,
      "lon": -92.03359402650909
    },
    "city": "Santo Tomas",
    "country": "Ecuador",
    "region": "Galapagos",
    "is_raining": false
  },
  {
    "coord": {
      "lat": 0.1735210285975768,
      "lon": -80.93656127411458
    },
    "city": "Puerto Cabuyal",
    "country": "Ecuador",
    "region": "Manabi",
    "is_raining": true
  },
  {
    "coord": {
      "lat": -7.313422345037097,
      "lon": -81.66579652824639
    },
    "city": "Kilometro Doscientos Cuarenticinco",
    "country": "Peru",
    "region": "Lambayeque",
    "is_raining": true
  },
  {
    "coord": {
      "lat": -0.34287722513569463,
      "lon": -90.77760726904594
    },
    "city": "Santa Cruz",
    "country": "Ecuador",
    "region": "Galapagos",
    "is_raining": false
  },
  {
    "coord": {
      "lat": 13.668983957145002,
      "lon": -82.17524173651967
    },
    "city": "Ayacucho",
    "country": "Colombia",
    "region": "San Andres y Providencia",
    "is_raining": false
  },
  {
    "coord": {
      "lat": -1.2671485969737262,
      "lon": -92.51820620394525
    },
    "city": "Puerto Villamil",
    "country": "Ecuador",
    "region": "Galapagos",
    "is_raining": false
  },
  {
    "coord": {
      "lat": -6.964859108214711,
      "lon": -71.57734150802816
    },
    "city": "Ipixuna",
    "country": "Brazil",
    "region": "Amazonas",
    "is_raining": false
  },
  {
    "coord": {
      "lat": 12.087482784005758,
      "lon": -85.20727113604542
    },
    "city": "El Ayote",
    "country": "Nicaragua",
    "region": "Chontales",
    "is_raining": false
  },
  {
    "coord": {
      "lat": 3.098903306645582,
      "lon": -80.14052948096092
    },
    "city": "El Sauce",
    "country": "Peru",
    "region": "Piura",
    "is_raining": true
  },
  {
    "coord": {
      "lat": 4.350289854610324,
      "lon": -79.87487745165305
    },
    "city": "El Sauce",
    "country": "Peru",
    "region": "Piura",
    "is_raining": true
  },
  {
    "coord": {
      "lat": -5.826463945091064,
      "lon": -72.38545087030906
    },
    "city": "Canama",
    "country": "Brazil",
    "region": "Amazonas",
    "is_raining": false
  },
  {
    "coord": {
      "lat": -2.2414622689396566,
      "lon": -90.74678846986521
    },
    "city": "La Baronesa",
    "country": "Ecuador",
    "region": "Galapagos",
    "is_raining": false
  },
  {
    "coord": {
      "lat": -0.6418433162293553,
      "lon": -89.78174006062066
    },
    "city": "Baquerizo Moreno",
    "country": "Ecuador",
    "region": "Galapagos",
    "is_raining": false
  },
  {
    "coord": {
      "lat": 0.27538963277895334,
      "lon": -90.5024399117142
    },
    "city": "Seymour",
    "country": "Ecuador",
    "region": "Galapagos",
    "is_raining": false
  },
  {
    "coord": {
      "lat": 11.470837940076322,
      "lon": -86.28796814139899
    },
    "city": "Veracruz",
    "country": "Nicaragua",
    "region": "Carazo",
    "is_raining": true
  },
  {
    "coord": {
      "lat": 4.885929327775884,
      "lon": -79.19758895205388
    },
    "city": "El Sauce",
    "country": "Peru",
    "region": "Piura",
    "is_raining": false
  },
  {
    "coord": {
      "lat": 5.7681424558166725,
      "lon": -75.84542597321727
    },
    "city": "Pueblorrico",
    "country": "Colombia",
    "region": "Antioquia",
    "is_raining": false
  },
  {
    "coord": {
      "lat": 0.38753431303413777,
      "lon": -79.94891052888399
    },
    "city": "Mocoral",
    "country": "Ecuador",
    "region": "Esmeraldas",
    "is_raining": false
  },
  {
    "coord": {
      "lat": 16.28655222373024,
      "lon": -82.25284284848996
    },
    "city": "Usibila",
    "country": "Honduras",
    "region": "Gracias a Dios",
    "is_raining": false
  },
  {
    "coord": {
      "lat": 9.373266025060275,
      "lon": -84.66238594558487
    },
    "city": "Muneco",
    "country": "Costa Rica",
    "region": "Puntarenas",
    "is_raining": false
  },
  {
    "coord": {
      "lat": -2.5857577625033628,
      "lon": -80.95877723882063
    },
    "city": "Bomba",
    "country": "Ecuador",
    "region": "Guayas",
    "is_raining": false
  },
  {
    "coord": {
      "lat": 16.846478655463287,
      "lon": -83.0291633791369
    },
    "city": "Tabacunta",
    "country": "Honduras",
    "region": "Gracias a Dios",
    "is_raining": false
  },
  {
    "coord": {
      "lat": 13.072655115751147,
      "lon": -79.70108551630692
    },
    "city": "Big Ben",
    "country": "Colombia",
    "region": "San Andres y Providencia",
    "is_raining": false
  },
  {
    "coord": {
      "lat": -11.276409541454257,
      "lon": -79.36511066778735
    },
    "city": "Aquashuarco",
    "country": "Peru",
    "region": "Lima",
    "is_raining": false
  },
  {
    "coord": {
      "lat": 11.798470927375234,
      "lon": -85.75701406450364
    },
    "city": "El Carmen",
    "country": "Nicaragua",
    "region": "Granada",
    "is_raining": true
  },
  {
    "coord": {
      "lat": -4.503166747579741,
      "lon": -81.63609730434868
    },
    "city": "Barrio Bellavista",
    "country": "Peru",
    "region": "Piura",
    "is_raining": false
  },
  {
    "coord": {
      "lat": 5.267856999011784,
      "lon": -76.33998591182345
    },
    "city": "Bagado",
    "country": "Colombia",
    "region": "Choco",
    "is_raining": false
  },
  {
    "coord": {
      "lat": -3.954078204208173,
      "lon": -82.07426271681952
    },
    "city": "Restin",
    "country": "Peru",
    "region": "Piura",
    "is_raining": false
  },
  {
    "coord": {
      "lat": -9.33427977680698,
      "lon": -77.22432895559075
    },
    "city": "Huari",
    "country": "Peru",
    "region": "Ancash",
    "is_raining": true
  },
  {
    "coord": {
      "lat": -3.909145325654748,
      "lon": -80.54152489613442
    },
    "city": "Carbonera",
    "country": "Peru",
    "region": "Tumbes",
    "is_raining": true
  },
  {
    "coord": {
      "lat": 7.01628364046509,
      "lon": -83.83417468878703
    },
    "city": "Resbalosa",
    "country": "Panama",
    "region": "Chiriqui",
    "is_raining": false
  },
  {
    "coord": {
      "lat": 15.15963891059836,
      "lon": -86.66872678864894
    },
    "city": "Mangulile",
    "country": "Honduras",
    "region": "Olancho",
    "is_raining": false
  },
  {
    "coord": {
      "lat": 0.6313219535914385,
      "lon": -91.63939656262843
    },
    "city": "Santo Tomas",
    "country": "Ecuador",
    "region": "Galapagos",
    "is_raining": false
  },
  {
    "coord": {
      "lat": 14.49328585257021,
      "lon": -84.66951117490672
    },
    "city": "Sausa",
    "country": "Honduras",
    "region": "Gracias a Dios",
    "is_raining": false
  },
  {
    "coord": {
      "lat": 4.456363178802349,
      "lon": -81.85906369799494
    },
    "city": "El Sauce",
    "country": "Peru",
    "region": "Piura",
    "is_raining": false
  },
  {
    "coord": {
      "lat": -0.9363982334593146,
      "lon": -80.12410404476763
    },
    "city": "Junin",
    "country": "Ecuador",
    "region": "Manabi",
    "is_raining": true
  },
  {
    "coord": {
      "lat": -0.5875565310554975,
      "lon": -80.70928437710413
    },
    "city": "San Clemente",
    "country": "Ecuador",
    "region": "Manabi",
    "is_raining": false
  },
  {
    "coord": {
      "lat": -10.666105728189848,
      "lon": -79.29822170757002
    },
    "city": "Puerto Huarmey",
    "country": "Peru",
    "region": "Ancash",
    "is_raining": true
  },
  {
    "coord": {
      "lat": -4.1257304237914525,
      "lon": -78.78135860507085
    },
    "city": "Cumay Alto",
    "country": "Ecuador",
    "region": "Zamora-Chinchipe",
    "is_raining": true
  },
  {
    "coord": {
      "lat": -3.0443822389142525,
      "lon": -77.07034699702318
    },
    "city": "Churusa",
    "country": "Peru",
    "region": "Loreto",
    "is_raining": true
  },
  {
    "coord": {
      "lat": -1.9574192981587544,
      "lon": -90.20644306982774
    },
    "city": "La Baronesa",
    "country": "Ecuador",
    "region": "Galapagos",
    "is_raining": false
  },
  {
    "coord": {
      "lat": 3.8635575518364362,
      "lon": -82.00514969657664
    },
    "city": "El Sauce",
    "country": "Peru",
    "region": "Piura",
    "is_raining": false
  },
  {
    "coord": {
      "lat": 12.420582891759807,
      "lon": -81.09744512587956
    },
    "city": "San Francisco",
    "country": "Colombia",
    "region": "San Andres y Providencia",
    "is_raining": false
  },
  {
    "coord": {
      "lat": -4.771906294585605,
      "lon": -80.69820472083585
    },
    "city": "Querecotillo",
    "country": "Peru",
    "region": "Piura",
    "is_raining": true
  },
  {
    "coord": {
      "lat": 7.015350769130663,
      "lon": -79.91889222833957
    },
    "city": "Puerto Escondido",
    "country": "Panama",
    "region": "Los Santos",
    "is_raining": false
  },
  {
    "coord": {
      "lat": -9.655930656993391,
      "lon": -78.57842309614986
    },
    "city": "La Ponderosa",
    "country": "Peru",
    "region": "Ancash",
    "is_raining": true
  },
  {
    "coord": {
      "lat": 6.313419805143226,
      "lon": -81.74222008638046
    },
    "city": "El Trapiche",
    "country": "Panama",
    "region": "Veraguas",
    "is_raining": true
  },
  {
    "coord": {
      "lat": 17.803699755028404,
      "lon": -98.00595854984546
    },
    "city": "Tierra Colorada",
    "country": "Mexico",
    "region": "Oaxaca",
    "is_raining": true
  },
  {
    "coord": {
      "lat": -11.215114069322112,
      "lon": -69.33130696647692
    },
    "city": "Vesubio",
    "country": "Bolivia",
    "region": "Pando",
    "is_raining": true
  },
  {
    "coord": {
      "lat": 1.2440225370626052,
      "lon": -66.64791006604538
    },
    "city": "San Simon Del Cocuy",
    "country": "Venezuela",
    "region": "Amazonas",
    "is_raining": false
  },
  {
    "coord": {
      "lat": 22.65076054234781,
      "lon": -83.90347448634837
    },
    "city": "El Venero",
    "country": "Cuba",
    "region": "Pinar del Rio",
    "is_raining": false
  },
  {
    "coord": {
      "lat": 4.274912248908379,
      "lon": -66.92748363663273
    },
    "city": "Santa Inez",
    "country": "Venezuela",
    "region": "Amazonas",
    "is_raining": false
  },
  {
    "coord": {
      "lat": 8.367234755398371,
      "lon": -80.85125051165036
    },
    "city": "Calobre",
    "country": "Panama",
    "region": "Veraguas",
    "is_raining": true
  },
  {
    "coord": {
      "lat": 25.482278196010085,
      "lon": -105.65997130417296
    },
    "city": "El Durazno",
    "country": "Mexico",
    "region": "Durango",
    "is_raining": false
  },
  {
    "coord": {
      "lat": 0.09581215344078942,
      "lon": -71.97309991901712
    },
    "city": "Puerto Yavilla",
    "country": "Colombia",
    "region": "Caqueta",
    "is_raining": false
  },
  {
    "coord": {
      "lat": 0.8929774237952444,
      "lon": -81.23063168780187
    },
    "city": "Coquito",
    "country": "Ecuador",
    "region": "Esmeraldas",
    "is_raining": false
  },
  {
    "coord": {
      "lat": -4.5700831445264924,
      "lon": -79.28802734289225
    },
    "city": "Hacienda La Florida",
    "country": "Ecuador",
    "region": "Loja",
    "is_raining": true
  },
  {
    "coord": {
      "lat": -2.077611218578639,
      "lon": -77.8153717579573
    },
    "city": "Capadino Entza",
    "country": "Ecuador",
    "region": "Morona-Santiago",
    "is_raining": true
  },
  {
    "coord": {
      "lat": 6.57531992432456,
      "lon": -75.93261949976596
    },
    "city": "Antioquia",
    "country": "Colombia",
    "region": "Antioquia",
    "is_raining": true
  },
  {
    "coord": {
      "lat": -5.664771504832075,
      "lon": -78.71888697445722
    },
    "city": "Bellavista",
    "country": "Peru",
    "region": "Cajamarca",
    "is_raining": true
  },
  {
    "coord": {
      "lat": 13.983260736005235,
      "lon": -84.02230010299456
    },
    "city": "Mine Castro",
    "country": "Nicaragua",
    "region": "Autonoma Atlantico Norte",
    "is_raining": false
  },
  {
    "coord": {
      "lat": -1.509169680551949,
      "lon": -90.7388835874858
    },
    "city": "La Baronesa",
    "country": "Ecuador",
    "region": "Galapagos",
    "is_raining": false
  },
  {
    "coord": {
      "lat": 13.095676870253342,
      "lon": -80.98061886120973
    },
    "city": "Big Ben",
    "country": "Colombia",
    "region": "San Andres y Providencia",
    "is_raining": false
  },
  {
    "coord": {
      "lat": 14.188675580048226,
      "lon": -87.07413590264275
    },
    "city": "San Juancito",
    "country": "Honduras",
    "region": "Francisco Morazan",
    "is_raining": false
  },
  {
    "coord": {
      "lat": -13.441959249663213,
      "lon": -75.15207707038746
    },
    "city": "Ccenuapata",
    "country": "Peru",
    "region": "Huancavelica",
    "is_raining": true
  },
  {
    "coord": {
      "lat": 14.937159674944667,
      "lon": -92.63178774426683
    },
    "city": "San Jose El Hueyate (Barra De San Jose)",
    "country": "Mexico",
    "region": "Chiapas",
    "is_raining": false
  },
  {
    "coord": {
      "lat": 0.8695489334617292,
      "lon": -90.47829775610205
    },
    "city": "Seymour",
    "country": "Ecuador",
    "region": "Galapagos",
    "is_raining": false
  },
  {
    "coord": {
      "lat": 1.41397696654127,
      "lon": -74.59744547554517
    },
    "city": "La Perra",
    "country": "Colombia",
    "region": "Caqueta",
    "is_raining": true
  },
  {
    "coord": {
      "lat": 1.7760998420181267,
      "lon": -74.02291667995651
    },
    "city": "La Tunia",
    "country": "Colombia",
    "region": "Meta",
    "is_raining": true
  },
  {
    "coord": {
      "lat": -13.3956112540466,
      "lon": -75.78553931725514
    },
    "city": "Hacienda Huachacc",
    "country": "Peru",
    "region": "Ica",
    "is_raining": false
  },
  {
    "coord": {
      "lat": 11.37079838557834,
      "lon": -75.4220961384422
    },
    "city": "Corregimiento El Morro",
    "country": "Colombia",
    "region": "Atlantico",
    "is_raining": false
  },
  {
    "coord": {
      "lat": -8.183659691775915,
      "lon": -76.63502057137079
    },
    "city": "Tocache",
    "country": "Peru",
    "region": "San Martin",
    "is_raining": true
  },
  {
    "coord": {
      "lat": 6.051205889042805,
      "lon": -76.39135031184294
    },
    "city": "La Isleta",
    "country": "Colombia",
    "region": "Antioquia",
    "is_raining": false
  },
  {
    "coord": {
      "lat": 14.349136950945933,
      "lon": -92.22977759291692
    },
    "city": "Ocos",
    "country": "Guatemala",
    "region": "San Marcos",
    "is_raining": false
  },
  {
    "coord": {
      "lat": 13.040549372889785,
      "lon": -86.3274503098136
    },
    "city": "Esteli",
    "country": "Nicaragua",
    "region": "Esteli",
    "is_raining": true
  },
  {
    "coord": {
      "lat": 6.648549720142924,
      "lon": -83.10429127889361
    },
    "city": "Resbalosa",
    "country": "Panama",
    "region": "Chiriqui",
    "is_raining": false
  },
  {
    "coord": {
      "lat": -15.100927657994305,
      "lon": -77.73441242847332
    },
    "city": "El Panteon",
    "country": "Peru",
    "region": "Ica",
    "is_raining": false
  },
  {
    "coord": {
      "lat": 21.616520086495015,
      "lon": -82.45910425910854
    },
    "city": "La Reforma",
    "country": "Cuba",
    "region": "Isla de la Juventud",
    "is_raining": false
  },
  {
    "coord": {
      "lat": 12.553582876559972,
      "lon": -84.05867361788594
    },
    "city": "La Plegaria",
    "country": "Nicaragua",
    "region": "Region Autonoma Atlantico Sur",
    "is_raining": false
  },
  {
    "coord": {
      "lat": -10.14123392749687,
      "lon": -75.24371248023061
    },
    "city": "Chuchuras",
    "country": "Peru",
    "region": "Pasco",
    "is_raining": true
  },
  {
    "coord": {
      "lat": 16.104006476383773,
      "lon": -97.67627659473584
    },
    "city": "Linda Vista",
    "country": "Mexico",
    "region": "Oaxaca",
    "is_raining": true
  },
  {
    "coord": {
      "lat": 17.852770100406488,
      "lon": -93.46238164655719
    },
    "city": "Libertad",
    "country": "Mexico",
    "region": "Tabasco",
    "is_raining": true
  },
  {
    "coord": {
      "lat": 16.954544684150108,
      "lon": -94.43674315236143
    },
    "city": "Huacatapaco",
    "country": "Mexico",
    "region": "Oaxaca",
    "is_raining": true
  },
  {
    "coord": {
      "lat": -15.445730515285035,
      "lon": -69.24478838985634
    },
    "city": "Cotopata",
    "country": "Peru",
    "region": "Puno",
    "is_raining": false
  },
  {
    "coord": {
      "lat": -6.988260529211857,
      "lon": -75.46652322280126
    },
    "city": "Inahuaya",
    "country": "Peru",
    "region": "San Martin",
    "is_raining": false
  },
  {
    "coord": {
      "lat": -7.6483769281171305,
      "lon": -65.40317949280336
    },
    "city": "Sebastopol",
    "country": "Brazil",
    "region": "Amazonas",
    "is_raining": true
  },
  {
    "coord": {
      "lat": -2.62854113199802,
      "lon": -78.2259799341103
    },
    "city": "Sucua",
    "country": "Ecuador",
    "region": "Morona-Santiago",
    "is_raining": true
  },
  {
    "coord": {
      "lat": -0.95711972331749,
      "lon": -89.22920436393002
    },
    "city": "La Hacienda",
    "country": "Ecuador",
    "region": "Galapagos",
    "is_raining": false
  },
  {
    "coord": {
      "lat": 8.957706086665496,
      "lon": -81.69715420523521
    },
    "city": "Bisira",
    "country": "Panama",
    "region": "Bocas del Toro",
    "is_raining": true
  },
  {
    "coord": {
      "lat": -12.920827328759131,
      "lon": -78.32935294050445
    },
    "city": "Base Naval",
    "country": "Peru",
    "region": "Callao",
    "is_raining": false
  },
  {
    "coord": {
      "lat": 16.043546547654785,
      "lon": -78.109271524493
    },
    "city": "Lower Southfield",
    "country": "Jamaica",
    "region": "Saint Elizabeth",
    "is_raining": false
  },
  {
    "coord": {
      "lat": 7.696633265192958,
      "lon": -80.05150926316495
    },
    "city": "Pocri",
    "country": "Panama",
    "region": "Los Santos",
    "is_raining": false
  },
  {
    "coord": {
      "lat": -9.954729059721103,
      "lon": -77.221511817307
    },
    "city": "Tuco Macray",
    "country": "Peru",
    "region": "Ancash",
    "is_raining": true
  },
  {
    "coord": {
      "lat": 19.937114344874345,
      "lon": -77.2010564419536
    },
    "city": "La Marca Del Portillo",
    "country": "Cuba",
    "region": "Granma",
    "is_raining": false
  },
  {
    "coord": {
      "lat": 32.29284506198521,
      "lon": -87.80800009068797
    },
    "city": "Linden",
    "country": "United States of America",
    "region": "Alabama",
    "is_raining": false
  },
  {
    "coord": {
      "lat": -0.3523569502795425,
      "lon": -67.20063294602363
    },
    "city": "Sao Gabriel Da Cachoeira",
    "country": "Brazil",
    "region": "Amazonas",
    "is_raining": false
  },
  {
    "coord": {
      "lat": 0.10559519441568455,
      "lon": -89.56893245175324
    },
    "city": "Seymour",
    "country": "Ecuador",
    "region": "Galapagos",
    "is_raining": false
  },
  {
    "coord": {
      "lat": 15.879959191611022,
      "lon": -88.21434291151249
    },
    "city": "Barra Del Motagua",
    "country": "Guatemala",
    "region": "Izabal",
    "is_raining": false
  },
  {
    "coord": {
      "lat": 6.640010297596049,
      "lon": -59.97620500426299
    },
    "city": "Amamuri Village",
    "country": "Guyana",
    "region": "Cuyuni-Mazaruni",
    "is_raining": true
  },
  {
    "coord": {
      "lat": 25.11831501129558,
      "lon": -109.24990397340143
    },
    "city": "Ajoro",
    "country": "Mexico",
    "region": "Sinaloa",
    "is_raining": false
  },
  {
    "coord": {
      "lat": -5.228101263115505,
      "lon": -63.52821686079847
    },
    "city": "Gaivotas",
    "country": "Brazil",
    "region": "Amazonas",
    "is_raining": false
  },
  {
    "coord": {
      "lat": -5.7290997992348025,
      "lon": -75.0867864665072
    },
    "city": "Puerto Ennique",
    "country": "Peru",
    "region": "Loreto",
    "is_raining": false
  },
  {
    "coord": {
      "lat": -10.408665442769163,
      "lon": -79.96921284929651
    },
    "city": "Puerto Huarmey",
    "country": "Peru",
    "region": "Ancash",
    "is_raining": false
  },
  {
    "coord": {
      "lat": 10.093452911345551,
      "lon": -73.03701648592603
    },
    "city": "San Jose",
    "country": "Colombia",
    "region": "Cesar",
    "is_raining": true
  },
  {
    "coord": {
      "lat": 18.510451514218843,
      "lon": -96.5107566001164
    },
    "city": "El Setenta Y Dos",
    "country": "Mexico",
    "region": "Oaxaca",
    "is_raining": false
  },
  {
    "coord": {
      "lat": 15.015796327495181,
      "lon": -93.46378239755254
    },
    "city": "Pasito De La Senora",
    "country": "Mexico",
    "region": "Chiapas",
    "is_raining": false
  },
  {
    "coord": {
      "lat": 7.327961879609546,
      "lon": -74.57153404145068
    },
    "city": "Sapo",
    "country": "Colombia",
    "region": "Antioquia",
    "is_raining": true
  },
  {
    "coord": {
      "lat": 6.261391266935931,
      "lon": -65.05032429680155
    },
    "city": "La Union",
    "country": "Venezuela",
    "region": "Bolivar",
    "is_raining": false
  },
  {
    "coord": {
      "lat": -2.549966508219555,
      "lon": -77.4262099543123
    },
    "city": "Pampants",
    "country": "Ecuador",
    "region": "Morona-Santiago",
    "is_raining": true
  },
  {
    "coord": {
      "lat": 8.618514435490596,
      "lon": -77.42480441082951
    },
    "city": "Chucurti",
    "country": "Panama",
    "region": "San Blas",
    "is_raining": true
  },
  {
    "coord": {
      "lat": 13.349007591045648,
      "lon": -70.6410958567762
    },
    "city": "Blumond",
    "country": "Aruba",
    "region": "",
    "is_raining": false
  },
  {
    "coord": {
      "lat": 18.50807681117331,
      "lon": -88.79728220995675
    },
    "city": "Nachi Cocom",
    "country": "Mexico",
    "region": "Quintana Roo",
    "is_raining": true
  },
  {
    "coord": {
      "lat": 4.436361419621605,
      "lon": -80.51374412096816
    },
    "city": "El Sauce",
    "country": "Peru",
    "region": "Piura",
    "is_raining": true
  },
  {
    "coord": {
      "lat": -0.7435760994620182,
      "lon": -92.15287527057384
    },
    "city": "Santo Tomas",
    "country": "Ecuador",
    "region": "Galapagos",
    "is_raining": false
  },
  {
    "coord": {
      "lat": 13.578983324040351,
      "lon": -85.20840289918769
    },
    "city": "Puerto Viejo",
    "country": "Nicaragua",
    "region": "Autonoma Atlantico Norte",
    "is_raining": false
  },
  {
    "coord": {
      "lat": 1.1707954596601695,
      "lon": -72.68238084914869
    },
    "city": "Dos Rios",
    "country": "Colombia",
    "region": "Guaviare",
    "is_raining": false
  },
  {
    "coord": {
      "lat": -5.51437894426725,
      "lon": -73.77535123270971
    },
    "city": "Huacapurana",
    "country": "Peru",
    "region": "Loreto",
    "is_raining": false
  },
  {
    "coord": {
      "lat": -4.686373591291584,
      "lon": -76.9228941435406
    },
    "city": "Puerto America",
    "country": "Peru",
    "region": "Loreto",
    "is_raining": true
  },
  {
    "coord": {
      "lat": 15.531923971195624,
      "lon": -94.7945526690447
    },
    "city": "Aguas Pocas",
    "country": "Mexico",
    "region": "Oaxaca",
    "is_raining": false
  },
  {
    "coord": {
      "lat": 16.37769460655207,
      "lon": -92.14748004741541
    },
    "city": "San Antonio Ogotzil",
    "country": "Mexico",
    "region": "Chiapas",
    "is_raining": false
  },
  {
    "coord": {
      "lat": 3.81655840776547,
      "lon": -80.63020911600937
    },
    "city": "El Sauce",
    "country": "Peru",
    "region": "Piura",
    "is_raining": true
  },
  {
    "coord": {
      "lat": -6.2103094163599195,
      "lon": -80.66640473638621
    },
    "city": "Mina Bayobar",
    "country": "Peru",
    "region": "Piura",
    "is_raining": true
  },
  {
    "coord": {
      "lat": -1.6755026307777996,
      "lon": -72.4620700462526
    },
    "city": "Santa Rosa Menaje",
    "country": "Colombia",
    "region": "Amazonas",
    "is_raining": false
  },
  {
    "coord": {
      "lat": -12.315855897426772,
      "lon": -70.64137761678548
    },
    "city": "Puerto Manu",
    "country": "Peru",
    "region": "Madre de Dios",
    "is_raining": true
  },
  {
    "coord": {
      "lat": -7.3885772437557335,
      "lon": -80.26269608779121
    },
    "city": "Cherrepe",
    "country": "Peru",
    "region": "Lambayeque",
    "is_raining": true
  },
  {
    "coord": {
      "lat": 6.949774805771412,
      "lon": -79.30524032214578
    },
    "city": "Punta Mala",
    "country": "Panama",
    "region": "Los Santos",
    "is_raining": false
  },
  {
    "coord": {
      "lat": 26.181006385685905,
      "lon": -77.70141734545427
    },
    "city": "The Bight",
    "country": "Bahamas",
    "region": "Sandy Point",
    "is_raining": false
  },
  {
    "coord": {
      "lat": -2.57427995042967,
      "lon": -89.92602831216966
    },
    "city": "La Baronesa",
    "country": "Ecuador",
    "region": "Galapagos",
    "is_raining": false
  },
  {
    "coord": {
      "lat": -2.185513512576179,
      "lon": -92.05487784577222
    },
    "city": "Puerto Villamil",
    "country": "Ecuador",
    "region": "Galapagos",
    "is_raining": false
  },
  {
    "coord": {
      "lat": -2.9383130199195904,
      "lon": -76.3286553235313
    },
    "city": "Chambira",
    "country": "Peru",
    "region": "Loreto",
    "is_raining": true
  },
  {
    "coord": {
      "lat": -11.061719010203902,
      "lon": -77.97064481404969
    },
    "city": "Aquashuarco",
    "country": "Peru",
    "region": "Lima",
    "is_raining": false
  },
  {
    "coord": {
      "lat": -5.19886742796713,
      "lon": -78.18579685438674
    },
    "city": "Tsegken",
    "country": "Peru",
    "region": "Amazonas",
    "is_raining": true
  },
  {
    "coord": {
      "lat": 14.502083898732877,
      "lon": -95.50704413199402
    },
    "city": "Valerio Martinez",
    "country": "Mexico",
    "region": "Oaxaca",
    "is_raining": true
  },
  {
    "coord": {
      "lat": 16.951964382557676,
      "lon": -93.4954647323657
    },
    "city": "Nuevo Jerusalen",
    "country": "Mexico",
    "region": "Chiapas",
    "is_raining": true
  },
  {
    "coord": {
      "lat": -3.3328615001655066,
      "lon": -75.32223737307581
    },
    "city": "Triunfo",
    "country": "Peru",
    "region": "Loreto",
    "is_raining": false
  },
  {
    "coord": {
      "lat": -2.2116699738840424,
      "lon": -79.52127261052978
    },
    "city": "Naranjito",
    "country": "Ecuador",
    "region": "Guayas",
    "is_raining": true
  },
  {
    "coord": {
      "lat": 10.693965100984386,
      "lon": -87.28579965313767
    },
    "city": "Tupilapa",
    "country": "Nicaragua",
    "region": "Carazo",
    "is_raining": true
  },
  {
    "coord": {
      "lat": 0.9101891778886966,
      "lon": -78.23539353889984
    },
    "city": "Puellamal",
    "country": "Ecuador",
    "region": "Carchi",
    "is_raining": true
  },
  {
    "coord": {
      "lat": 27.783319637745862,
      "lon": -78.9013379839322
    },
    "city": "Water Cay Settlement",
    "country": "Bahamas",
    "region": "Freeport",
    "is_raining": false
  },
  {
    "coord": {
      "lat": 7.107858710702999,
      "lon": -75.50982670623078
    },
    "city": "Briceno",
    "country": "Colombia",
    "region": "Antioquia",
    "is_raining": true
  },
  {
    "coord": {
      "lat": -13.240519479690576,
      "lon": -63.07125915804242
    },
    "city": "Patroncito",
    "country": "Bolivia",
    "region": "El Beni",
    "is_raining": false
  },
  {
    "coord": {
      "lat": 3.3781969310807085,
      "lon": -78.7644269226676
    },
    "city": "La Vigia",
    "country": "Colombia",
    "region": "Narino",
    "is_raining": true
  },
  {
    "coord": {
      "lat": 5.727572837753158,
      "lon": -81.07115147844517
    },
    "city": "El Sauce",
    "country": "Peru",
    "region": "Piura",
    "is_raining": false
  },
  {
    "coord": {
      "lat": 0.7523431173078023,
      "lon": -75.84403377190164
    },
    "city": "Cananguchal",
    "country": "Colombia",
    "region": "Putumayo",
    "is_raining": true
  },
  {
    "coord": {
      "lat": 14.91076173792068,
      "lon": -63.60784956924262
    },
    "city": "Quartier Plaisable",
    "country": "Martinique",
    "region": "",
    "is_raining": true
  },
  {
    "coord": {
      "lat": 10.209391348094897,
      "lon": -74.4471773871221
    },
    "city": "Algarrobo",
    "country": "Colombia",
    "region": "Magdalena Department",
    "is_raining": false
  },
  {
    "coord": {
      "lat": 6.369438630060628,
      "lon": -81.09574482936605
    },
    "city": "Puerto Naranjo",
    "country": "Panama",
    "region": "Veraguas",
    "is_raining": false
  },
  {
    "coord": {
      "lat": 2.984854986553799,
      "lon": -64.54391031355713
    },
    "city": "Santa Maria De Los Guaicas",
    "country": "Venezuela",
    "region": "Amazonas",
    "is_raining": false
  },
  {
    "coord": {
      "lat": 12.569778852701674,
      "lon": -75.06267893134374
    },
    "city": "Los Ladrones",
    "country": "Colombia",
    "region": "Magdalena Department",
    "is_raining": false
  },
  {
    "coord": {
      "lat": 13.398508434655398,
      "lon": -72.75871625615137
    },
    "city": "Kashurop",
    "country": "Colombia",
    "region": "La Guajira",
    "is_raining": false
  },
  {
    "coord": {
      "lat": 8.844303803851489,
      "lon": -82.31290665325879
    },
    "city": "Boquete",
    "country": "Panama",
    "region": "Chiriqui",
    "is_raining": true
  },
  {
    "coord": {
      "lat": 8.68478642716272,
      "lon": -82.92636710839267
    },
    "city": "Corredor",
    "country": "Costa Rica",
    "region": "Puntarenas",
    "is_raining": true
  },
  {
    "coord": {
      "lat": 18.072437392513393,
      "lon": -90.9658654927154
    },
    "city": "Los Potrillos",
    "country": "Mexico",
    "region": "Campeche",
    "is_raining": false
  },
  {
    "coord": {
      "lat": 5.029723805290615,
      "lon": -77.42934087229901
    },
    "city": "Bajo Baudo",
    "country": "Colombia",
    "region": "Choco",
    "is_raining": false
  },
  {
    "coord": {
      "lat": -0.7702528474943904,
      "lon": -59.94993985377151
    },
    "city": "Sitio Manoel J. De Souza",
    "country": "Brazil",
    "region": "Amazonas",
    "is_raining": true
  },
  {
    "coord": {
      "lat": 8.338652334486952,
      "lon": -60.78532019093828
    },
    "city": "Jamatuba",
    "country": "Venezuela",
    "region": "Delta Amacuro",
    "is_raining": true
  },
  {
    "coord": {
      "lat": -1.316669255081294,
      "lon": -60.29859268682151
    },
    "city": "Sitio Manoel J. De Souza",
    "country": "Brazil",
    "region": "Amazonas",
    "is_raining": true
  },
  {
    "coord": {
      "lat": -1.1744108485239053,
      "lon": -68.09518375484232
    },
    "city": "Julia",
    "country": "Brazil",
    "region": "Amazonas",
    "is_raining": false
  },
  {
    "coord": {
      "lat": -3.1178020238671564,
      "lon": -72.5238152329689
    },
    "city": "Cusco",
    "country": "Peru",
    "region": "Loreto",
    "is_raining": false
  },
  {
    "coord": {
      "lat": 8.169424772075942,
      "lon": -78.40439994137404
    },
    "city": "Garachine",
    "country": "Panama",
    "region": "Darien",
    "is_raining": false
  },
  {
    "coord": {
      "lat": 24.692452229769984,
      "lon": -107.76691094542565
    },
    "city": "Huitlacoche",
    "country": "Mexico",
    "region": "Sinaloa",
    "is_raining": false
  },
  {
    "coord": {
      "lat": -9.290482570971065,
      "lon": -72.68696916288557
    },
    "city": "Arenal",
    "country": "Brazil",
    "region": "Acre",
    "is_raining": true
  },
  {
    "coord": {
      "lat": 3.8261979902939487,
      "lon": -63.28593017624014
    },
    "city": "Maloca Macu",
    "country": "Brazil",
    "region": "Roraima",
    "is_raining": true
  },
  {
    "coord": {
      "lat": 14.970338124073407,
      "lon": -85.35738530290234
    },
    "city": "Culuco",
    "country": "Honduras",
    "region": "Olancho",
    "is_raining": false
  },
  {
    "coord": {
      "lat": 15.062893807140526,
      "lon": -80.83368942286191
    },
    "city": "Jacob Ladder",
    "country": "Colombia",
    "region": "San Andres y Providencia",
    "is_raining": false
  },
  {
    "coord": {
      "lat": 15.024675536188283,
      "lon": -95.16675053458185
    },
    "city": "Garrapateras",
    "country": "Mexico",
    "region": "Oaxaca",
    "is_raining": true
  },
  {
    "coord": {
      "lat": 3.357697645586157,
      "lon": -60.60371397570646
    },
    "city": "Alagadico",
    "country": "Brazil",
    "region": "Roraima",
    "is_raining": false
  },
  {
    "coord": {
      "lat": -13.393059954348018,
      "lon": -62.17552837868216
    },
    "city": "Asociega",
    "country": "Bolivia",
    "region": "El Beni",
    "is_raining": true
  },
  {
    "coord": {
      "lat": 12.418845242098229,
      "lon": -79.83418007760072
    },
    "city": "Big Ben",
    "country": "Colombia",
    "region": "San Andres y Providencia",
    "is_raining": false
  },
  {
    "coord": {
      "lat": -13.064486579769039,
      "lon": -63.98391724290901
    },
    "city": "San Pedrito",
    "country": "Bolivia",
    "region": "El Beni",
    "is_raining": false
  },
  {
    "coord": {
      "lat": 6.946967187851811,
      "lon": -81.80817184795629
    },
    "city": "El Trapiche",
    "country": "Panama",
    "region": "Veraguas",
    "is_raining": true
  },
  {
    "coord": {
      "lat": -21.479082520097307,
      "lon": -68.87758327401473
    },
    "city": "Aimani",
    "country": "Chile",
    "region": "Antofagasta",
    "is_raining": false
  },
  {
    "coord": {
      "lat": 17.413033003421617,
      "lon": -93.96365119018246
    },
    "city": "Rafael Murillo Vidal",
    "country": "Mexico",
    "region": "Veracruz-Llave",
    "is_raining": false
  },
  {
    "coord": {
      "lat": 5.951337040161704,
      "lon": -74.85604847137569
    },
    "city": "San Luis",
    "country": "Colombia",
    "region": "Antioquia",
    "is_raining": true
  },
  {
    "coord": {
      "lat": 11.089791569948446,
      "lon": -80.20778020690315
    },
    "city": "Cacique",
    "country": "Panama",
    "region": "Colon",
    "is_raining": false
  },
  {
    "coord": {
      "lat": -16.722230422482,
      "lon": -62.60773638215727
    },
    "city": "Ramon",
    "country": "Bolivia",
    "region": "Santa Cruz",
    "is_raining": false
  },
  {
    "coord": {
      "lat": 31.46742481397152,
      "lon": -94.12271064322643
    },
    "city": "Maxey Town",
    "country": "United States of America",
    "region": "Texas",
    "is_raining": false
  },
  {
    "coord": {
      "lat": -11.497663932605974,
      "lon": -78.71000058824822
    },
    "city": "Aquashuarco",
    "country": "Peru",
    "region": "Lima",
    "is_raining": false
  },
  {
    "coord": {
      "lat": 2.2217609944488714,
      "lon": -74.45370982185506
    },
    "city": "San Juan De Lozada",
    "country": "Colombia",
    "region": "Meta",
    "is_raining": true
  },
  {
    "coord": {
      "lat": 6.254450244800793,
      "lon": -79.2213812445001
    },
    "city": "Punta Mala",
    "country": "Panama",
    "region": "Los Santos",
    "is_raining": false
  },
  {
    "coord": {
      "lat": 26.364542554840853,
      "lon": -109.3276768471071
    },
    "city": "El Palomo",
    "country": "Mexico",
    "region": "Sonora",
    "is_raining": false
  },
  {
    "coord": {
      "lat": -15.561485173821893,
      "lon": -60.89358516278619
    },
    "city": "Taperas De La Navidad",
    "country": "Bolivia",
    "region": "Santa Cruz",
    "is_raining": true
  },
  {
    "coord": {
      "lat": -9.971436398534522,
      "lon": -72.71010247179993
    },
    "city": "Resbaladero",
    "country": "Peru",
    "region": "Ucayali",
    "is_raining": true
  },
  {
    "coord": {
      "lat": 0.1349529759519612,
      "lon": -60.145507912650515
    },
    "city": "Jundia",
    "country": "Brazil",
    "region": "Roraima",
    "is_raining": false
  },
  {
    "coord": {
      "lat": 9.923099056629795,
      "lon": -75.29831270227258
    },
    "city": "Maria La Baja",
    "country": "Colombia",
    "region": "Bolivar Department",
    "is_raining": false
  },
  {
    "coord": {
      "lat": -1.108559207157981,
      "lon": -72.75943377869835
    },
    "city": "Menaje",
    "country": "Colombia",
    "region": "Amazonas",
    "is_raining": false
  },
  {
    "coord": {
      "lat": 5.851402189985677,
      "lon": -58.261867845349485
    },
    "city": "Linden",
    "country": "Guyana",
    "region": "Upper Demerara-Berbice",
    "is_raining": true
  },
  {
    "coord": {
      "lat": 31.65803510075189,
      "lon": -89.40595287997907
    },
    "city": "Leaf River",
    "country": "United States of America",
    "region": "Mississippi",
    "is_raining": false
  },
  {
    "coord": {
      "lat": 31.68897990912462,
      "lon": -94.86227614620296
    },
    "city": "Douglass",
    "country": "United States of America",
    "region": "Texas",
    "is_raining": false
  },
  {
    "coord": {
      "lat": 30.62969892231296,
      "lon": -90.24788049528935
    },
    "city": "Cranky Corner",
    "country": "United States of America",
    "region": "Louisiana",
    "is_raining": false
  },
  {
    "coord": {
      "lat": -1.7862466009505766,
      "lon": -63.05515988389571
    },
    "city": "Cumaru",
    "country": "Brazil",
    "region": "Amazonas",
    "is_raining": true
  },
  {
    "coord": {
      "lat": 32.06046426518482,
      "lon": -84.82207021418753
    },
    "city": "Lumpkin",
    "country": "United States of America",
    "region": "Georgia",
    "is_raining": false
  },
  {
    "coord": {
      "lat": -2.9156810823439656,
      "lon": -81.47459317419121
    },
    "city": "Anconcito",
    "country": "Ecuador",
    "region": "Guayas",
    "is_raining": false
  },
  {
    "coord": {
      "lat": -6.662826046311437,
      "lon": -79.06445726083697
    },
    "city": "Cascaden",
    "country": "Peru",
    "region": "Cajamarca",
    "is_raining": true
  },
  {
    "coord": {
      "lat": 6.301666532283122,
      "lon": -76.95071463570395
    },
    "city": "Puerto Martinez",
    "country": "Colombia",
    "region": "Choco",
    "is_raining": true
  },
  {
    "coord": {
      "lat": -19.426248749904886,
      "lon": -66.64942874045926
    },
    "city": "Nancahuaso",
    "country": "Bolivia",
    "region": "Potosi",
    "is_raining": false
  },
  {
    "coord": {
      "lat": -22.689130202680687,
      "lon": -66.39432405883919
    },
    "city": "Mina Ajedrez",
    "country": "Argentina",
    "region": "Jujuy",
    "is_raining": false
  },
  {
    "coord": {
      "lat": 9.633315658650531,
      "lon": -74.71187594411427
    },
    "city": "Cordoba",
    "country": "Colombia",
    "region": "Bolivar Department",
    "is_raining": false
  },
  {
    "coord": {
      "lat": 30.272353859587078,
      "lon": -81.32997837896333
    },
    "city": "Jacksonville Beach",
    "country": "United States of America",
    "region": "Florida",
    "is_raining": true
  },
  {
    "coord": {
      "lat": 8.543310251921667,
      "lon": -59.42036780607234
    },
    "city": "Morawhanna",
    "country": "Guyana",
    "region": "Barima-Waini",
    "is_raining": true
  },
  {
    "coord": {
      "lat": 8.377590806473933,
      "lon": -80.23306030040962
    },
    "city": "Anton",
    "country": "Panama",
    "region": "Cocle",
    "is_raining": false
  },
  {
    "coord": {
      "lat": 28.98211616203382,
      "lon": -96.98955440076776
    },
    "city": "Victoria",
    "country": "United States of America",
    "region": "Texas",
    "is_raining": false
  },
  {
    "coord": {
      "lat": 13.541490178173902,
      "lon": -63.061454330253575
    },
    "city": "Quartier Plaisable",
    "country": "Martinique",
    "region": "",
    "is_raining": false
  },
  {
    "coord": {
      "lat": 7.753580404880125,
      "lon": -71.9530065975895
    },
    "city": "Los Canos",
    "country": "Venezuela",
    "region": "Tachira",
    "is_raining": true
  },
  {
    "coord": {
      "lat": 30.177802015139612,
      "lon": -99.70814108942051
    },
    "city": "Junction Windmill",
    "country": "United States of America",
    "region": "Texas",
    "is_raining": true
  },
  {
    "coord": {
      "lat": 22.343492912773897,
      "lon": -110.26131757854229
    },
    "city": "Los Medanos Partidos",
    "country": "Mexico",
    "region": "Baja California Sur",
    "is_raining": false
  },
  {
    "coord": {
      "lat": -3.555246354949503,
      "lon": -73.74749549857373
    },
    "city": "Armausa",
    "country": "Peru",
    "region": "Loreto",
    "is_raining": false
  },
  {
    "coord": {
      "lat": 28.70635752926522,
      "lon": -98.62668315806201
    },
    "city": "Christine",
    "country": "United States of America",
    "region": "Texas",
    "is_raining": false
  },
  {
    "coord": {
      "lat": 28.786314372090622,
      "lon": -96.28746275557302
    },
    "city": "Pheasant",
    "country": "United States of America",
    "region": "Texas",
    "is_raining": false
  },
  {
    "coord": {
      "lat": 15.236598636667566,
      "lon": -87.98126846220174
    },
    "city": "El Plan",
    "country": "Honduras",
    "region": "Cortes",
    "is_raining": false
  },
  {
    "coord": {
      "lat": -4.912142242195927,
      "lon": -58.967738467193634
    },
    "city": "Terra Nova",
    "country": "Brazil",
    "region": "Amazonas",
    "is_raining": true
  },
  {
    "coord": {
      "lat": -20.62747055772168,
      "lon": -66.23153253287049
    },
    "city": "Alianza",
    "country": "Bolivia",
    "region": "Potosi",
    "is_raining": false
  },
  {
    "coord": {
      "lat": -1.6060009646202218,
      "lon": -89.2010374968964
    },
    "city": "San Cristobal",
    "country": "Ecuador",
    "region": "Galapagos",
    "is_raining": false
  },
  {
    "coord": {
      "lat": -3.7728175855732076,
      "lon": -61.30057266758918
    },
    "city": "Aracati",
    "country": "Brazil",
    "region": "Roraima",
    "is_raining": true
  },
  {
    "coord": {
      "lat": 25.37014969510942,
      "lon": -73.2078334605804
    },
    "city": "Dixons",
    "country": "Bahamas",
    "region": "San Salvador and Rum Cay",
    "is_raining": false
  },
  {
    "coord": {
      "lat": 14.25494392704789,
      "lon": -82.78249466573503
    },
    "city": "Awastara",
    "country": "Nicaragua",
    "region": "Autonoma Atlantico Norte",
    "is_raining": false
  },
  {
    "coord": {
      "lat": 16.773210584874548,
      "lon": -89.33476675394105
    },
    "city": "Valentin Camp",
    "country": "Belize",
    "region": "Cayo",
    "is_raining": false
  },
  {
    "coord": {
      "lat": -6.975098885348984,
      "lon": -76.8497719479391
    },
    "city": "Saposoa",
    "country": "Peru",
    "region": "San Martin",
    "is_raining": true
  },
  {
    "coord": {
      "lat": -10.68091072453602,
      "lon": -76.59191429229656
    },
    "city": "Oyon",
    "country": "Peru",
    "region": "Lima",
    "is_raining": true
  },
  {
    "coord": {
      "lat": 18.09197795123788,
      "lon": -62.33515130390683
    },
    "city": "Petit Cul De Sac",
    "country": "Guadeloupe",
    "region": "",
    "is_raining": true
  },
  {
    "coord": {
      "lat": 13.963428132060727,
      "lon": -93.39181531586556
    },
    "city": "Miguel Hidalgo",
    "country": "Mexico",
    "region": "Chiapas",
    "is_raining": false
  },
  {
    "coord": {
      "lat": 32.39458592855369,
      "lon": -86.6434087622165
    },
    "city": "Prattville",
    "country": "United States of America",
    "region": "Alabama",
    "is_raining": false
  },
  {
    "coord": {
      "lat": 18.47704138674841,
      "lon": -71.87137334511256
    },
    "city": "Jimani",
    "country": "Dominican Republic",
    "region": "Independencia",
    "is_raining": false
  },
  {
    "coord": {
      "lat": 31.32423970227571,
      "lon": -88.73266008602603
    },
    "city": "Bothwell",
    "country": "United States of America",
    "region": "Mississippi",
    "is_raining": false
  },
  {
    "coord": {
      "lat": 20.207172797187965,
      "lon": -64.52824055247083
    },
    "city": "The Settlement",
    "country": "Virgin Islands",
    "region": "",
    "is_raining": true
  },
  {
    "coord": {
      "lat": 18.565326861012664,
      "lon": -84.22495311461905
    },
    "city": "Conico",
    "country": "Cuba",
    "region": "Pinar del Rio",
    "is_raining": false
  },
  {
    "coord": {
      "lat": 28.34572110678404,
      "lon": -100.24377723997983
    },
    "city": "La Mision",
    "country": "Mexico",
    "region": "Coahuila",
    "is_raining": true
  },
  {
    "coord": {
      "lat": 5.071801067520909,
      "lon": -80.4464810419272
    },
    "city": "El Sauce",
    "country": "Peru",
    "region": "Piura",
    "is_raining": false
  },
  {
    "coord": {
      "lat": 2.582856867227804,
      "lon": -77.1048995216889
    },
    "city": "Huisito",
    "country": "Colombia",
    "region": "Cauca",
    "is_raining": true
  },
  {
    "coord": {
      "lat": -14.862302788175953,
      "lon": -62.06084290099191
    },
    "city": "Cuceretu",
    "country": "Bolivia",
    "region": "Santa Cruz",
    "is_raining": false
  },
  {
    "coord": {
      "lat": 16.930696549231172,
      "lon": -64.89585425700284
    },
    "city": "Concordia",
    "country": "United States of America",
    "region": "Virgin Islands",
    "is_raining": false
  },
  {
    "coord": {
      "lat": 11.103250139760036,
      "lon": -86.79823083853644
    },
    "city": "Tupilapa",
    "country": "Nicaragua",
    "region": "Carazo",
    "is_raining": true
  },
  {
    "coord": {
      "lat": 3.6698524182083503,
      "lon": -58.403242014159716
    },
    "city": "Apoteri",
    "country": "Guyana",
    "region": "Upper Takutu-Upper Essequibo",
    "is_raining": true
  },
  {
    "coord": {
      "lat": 14.740746116928364,
      "lon": -85.94829412402652
    },
    "city": "Punuare",
    "country": "Honduras",
    "region": "Olancho",
    "is_raining": false
  },
  {
    "coord": {
      "lat": 23.853431474049202,
      "lon": -112.00610946758476
    },
    "city": "Puerto Cortes",
    "country": "Mexico",
    "region": "Baja California Sur",
    "is_raining": false
  },
  {
    "coord": {
      "lat": 7.270909047208832,
      "lon": -77.64076580601657
    },
    "city": "Salaqui",
    "country": "Colombia",
    "region": "Choco",
    "is_raining": false
  },
  {
    "coord": {
      "lat": -23.137798005258034,
      "lon": -67.76278687941637
    },
    "city": "Pajonales",
    "country": "Chile",
    "region": "Antofagasta",
    "is_raining": false
  },
  {
    "coord": {
      "lat": 11.829883406580322,
      "lon": -76.66464136818968
    },
    "city": "Arroyo De Piedra",
    "country": "Colombia",
    "region": "Bolivar Department",
    "is_raining": false
  },
  {
    "coord": {
      "lat": 27.462114478991886,
      "lon": -110.09686525346362
    },
    "city": "Baltazar Peral",
    "country": "Mexico",
    "region": "Sonora",
    "is_raining": false
  },
  {
    "coord": {
      "lat": -33.23961248926756,
      "lon": -80.31703667832808
    },
    "city": "Robinson Crusoe",
    "country": "Chile",
    "region": "Valparaiso",
    "is_raining": false
  },
  {
    "coord": {
      "lat": 1.028830802576934,
      "lon": -60.366980655170515
    },
    "city": "Trindade",
    "country": "Brazil",
    "region": "Roraima",
    "is_raining": true
  },
  {
    "coord": {
      "lat": -19.203555821984637,
      "lon": -64.52371586567375
    },
    "city": "Tomina",
    "country": "Bolivia",
    "region": "Chuquisaca",
    "is_raining": false
  },
  {
    "coord": {
      "lat": 20.074132020075083,
      "lon": -67.20167951161741
    },
    "city": "Cabo Engano",
    "country": "Dominican Republic",
    "region": "La Altagracia",
    "is_raining": true
  },
  {
    "coord": {
      "lat": 11.081497232511651,
      "lon": -60.80762929218996
    },
    "city": "Scarborough",
    "country": "Trinidad and Tobago",
    "region": "Tobago",
    "is_raining": true
  },
  {
    "coord": {
      "lat": 27.086261243483385,
      "lon": -100.50829128550416
    },
    "city": "Dolores",
    "country": "Mexico",
    "region": "Nuevo Len",
    "is_raining": true
  },
  {
    "coord": {
      "lat": -12.577637669537438,
      "lon": -61.11397477801326
    },
    "city": "Barracao Do Liberato",
    "country": "Brazil",
    "region": "Rondonia",
    "is_raining": true
  },
  {
    "coord": {
      "lat": 2.341079749518073,
      "lon": -56.31139676326411
    },
    "city": "Anapi",
    "country": "Suriname",
    "region": "Sipaliwini",
    "is_raining": true
  },
  {
    "coord": {
      "lat": -12.569919471489442,
      "lon": -71.85791748428382
    },
    "city": "Noche Triste",
    "country": "Peru",
    "region": "Cusco",
    "is_raining": true
  },
  {
    "coord": {
      "lat": 0.9361785052621343,
      "lon": -58.979658482848436
    },
    "city": "Wakakulud Village",
    "country": "Guyana",
    "region": "Upper Takutu-Upper Essequibo",
    "is_raining": true
  },
  {
    "coord": {
      "lat": 30.096218455792105,
      "lon": -90.64321751441486
    },
    "city": "Laplace",
    "country": "United States of America",
    "region": "Louisiana",
    "is_raining": false
  },
  {
    "coord": {
      "lat": 6.774313366768382,
      "lon": -71.7760345096395
    },
    "city": "Fortul",
    "country": "Colombia",
    "region": "Arauca",
    "is_raining": true
  },
  {
    "coord": {
      "lat": -22.922962927354405,
      "lon": -67.07621982043477
    },
    "city": "Pairique Chico",
    "country": "Argentina",
    "region": "Jujuy",
    "is_raining": false
  },
  {
    "coord": {
      "lat": -20.38234474267449,
      "lon": -64.09637794236127
    },
    "city": "Sidras",
    "country": "Bolivia",
    "region": "Chuquisaca",
    "is_raining": true
  },
  {
    "coord": {
      "lat": 1.5380114094080284,
      "lon": -76.77037432273188
    },
    "city": "Escandoy",
    "country": "Colombia",
    "region": "Narino",
    "is_raining": true
  },
  {
    "coord": {
      "lat": 29.260764726614973,
      "lon": -104.62695121773874
    },
    "city": "La Boquilla",
    "country": "Mexico",
    "region": "Chihuahua",
    "is_raining": false
  },
  {
    "coord": {
      "lat": 15.54015514682888,
      "lon": -87.4248593859973
    },
    "city": "Suyapa De Lean",
    "country": "Honduras",
    "region": "Atlantida",
    "is_raining": false
  },
  {
    "coord": {
      "lat": -26.411442499543256,
      "lon": -68.05862687919438
    },
    "city": "Loro Huasi",
    "country": "Argentina",
    "region": "Catamarca",
    "is_raining": false
  },
  {
    "coord": {
      "lat": 7.305441173190047,
      "lon": -84.5813953241859
    },
    "city": "Sirena",
    "country": "Costa Rica",
    "region": "Puntarenas",
    "is_raining": true
  },
  {
    "coord": {
      "lat": 13.053214837313789,
      "lon": -91.49300791581804
    },
    "city": "San Jose Rama Blanca",
    "country": "Guatemala",
    "region": "Escuintla",
    "is_raining": false
  },
  {
    "coord": {
      "lat": 14.523335950271118,
      "lon": -93.8420138488317
    },
    "city": "Pasito De La Senora",
    "country": "Mexico",
    "region": "Chiapas",
    "is_raining": true
  },
  {
    "coord": {
      "lat": 22.168248350251375,
      "lon": -97.69055318192373
    },
    "city": "Campo Viejo De Santo Tomas",
    "country": "Mexico",
    "region": "Veracruz-Llave",
    "is_raining": true
  },
  {
    "coord": {
      "lat": 14.416244317603372,
      "lon": -80.85048725292332
    },
    "city": "Jacob Ladder",
    "country": "Colombia",
    "region": "San Andres y Providencia",
    "is_raining": false
  },
  {
    "coord": {
      "lat": -9.77083515428744,
      "lon": -59.873128344421175
    },
    "city": "Nova Sede",
    "country": "Brazil",
    "region": "Mato Grosso",
    "is_raining": true
  },
  {
    "coord": {
      "lat": -23.751654579316494,
      "lon": -67.64491356835059
    },
    "city": "Campamento El Laco",
    "country": "Chile",
    "region": "Antofagasta",
    "is_raining": false
  },
  {
    "coord": {
      "lat": 29.15906034695263,
      "lon": -97.70310416099461
    },
    "city": "Gillett",
    "country": "United States of America",
    "region": "Texas",
    "is_raining": true
  },
  {
    "coord": {
      "lat": 29.565294647258852,
      "lon": -108.45348014739945
    },
    "city": "El Quemado",
    "country": "Mexico",
    "region": "Chihuahua",
    "is_raining": false
  },
  {
    "coord": {
      "lat": 30.418571778458798,
      "lon": -102.01762441979538
    },
    "city": "Moser",
    "country": "United States of America",
    "region": "Texas",
    "is_raining": false
  },
  {
    "coord": {
      "lat": -12.468070682652211,
      "lon": -61.998178579185094
    },
    "city": "Ciza",
    "country": "Brazil",
    "region": "Rondonia",
    "is_raining": true
  },
  {
    "coord": {
      "lat": 28.534093138669746,
      "lon": -113.15040943989659
    },
    "city": "San Rafael",
    "country": "Mexico",
    "region": "Baja California",
    "is_raining": false
  },
  {
    "coord": {
      "lat": 17.41823903931703,
      "lon": -62.29690271775942
    },
    "city": "Barnabys Village",
    "country": "Saint Kitts and Nevis",
    "region": "Saint James Windward",
    "is_raining": true
  },
  {
    "coord": {
      "lat": -26.394675493008336,
      "lon": -64.28340942222141
    },
    "city": "Pozo Betbeder",
    "country": "Argentina",
    "region": "Santiago del Estero",
    "is_raining": false
  },
  {
    "coord": {
      "lat": 24.17008203744622,
      "lon": -106.30291748129798
    },
    "city": "El Chilar",
    "country": "Mexico",
    "region": "Sinaloa",
    "is_raining": false
  },
  {
    "coord": {
      "lat": 23.4176493805346,
      "lon": -113.39547758386581
    },
    "city": "Bahia Magdalena",
    "country": "Mexico",
    "region": "Baja California Sur",
    "is_raining": false
  },
  {
    "coord": {
      "lat": 13.572896323740963,
      "lon": -82.80138917112562
    },
    "city": "Coco Haulover",
    "country": "Nicaragua",
    "region": "Autonoma Atlantico Norte",
    "is_raining": false
  },
  {
    "coord": {
      "lat": -0.21238803420165198,
      "lon": -59.61384548019
    },
    "city": "Jundia",
    "country": "Brazil",
    "region": "Roraima",
    "is_raining": true
  },
  {
    "coord": {
      "lat": 5.925200166937998,
      "lon": -63.73291668489862
    },
    "city": "Lapo",
    "country": "Venezuela",
    "region": "Bolivar",
    "is_raining": false
  },
  {
    "coord": {
      "lat": -0.13815923725246648,
      "lon": -57.44682758078474
    },
    "city": "Sauia",
    "country": "Brazil",
    "region": "Para",
    "is_raining": true
  },
  {
    "coord": {
      "lat": -7.819125504608309,
      "lon": -58.909414507512295
    },
    "city": "Livramento",
    "country": "Brazil",
    "region": "Amazonas",
    "is_raining": true
  },
  {
    "coord": {
      "lat": 5.98769138447021,
      "lon": -54.47580341365726
    },
    "city": "Wan-Ati",
    "country": "Suriname",
    "region": "Marowijne",
    "is_raining": true
  },
  {
    "coord": {
      "lat": -26.073396567299937,
      "lon": -65.07490319606805
    },
    "city": "Candelaria",
    "country": "Argentina",
    "region": "Salta",
    "is_raining": true
  },
  {
    "coord": {
      "lat": -25.97680658473415,
      "lon": -66.59274979034302
    },
    "city": "Jasimana",
    "country": "Argentina",
    "region": "Salta",
    "is_raining": true
  },
  {
    "coord": {
      "lat": 22.908840040780746,
      "lon": -69.97733335910326
    },
    "city": "Cockburn Town",
    "country": "Turks and Caicos Islands",
    "region": "",
    "is_raining": false
  },
  {
    "coord": {
      "lat": -7.8082559435925845,
      "lon": -72.11477983507623
    },
    "city": "Bom Futuro",
    "country": "Brazil",
    "region": "Acre",
    "is_raining": false
  },
  {
    "coord": {
      "lat": 17.368089259791475,
      "lon": -83.84778132232753
    },
    "city": "Tabacunta",
    "country": "Honduras",
    "region": "Gracias a Dios",
    "is_raining": false
  },
  {
    "coord": {
      "lat": 4.8770482209241806,
      "lon": -59.26745125767612
    },
    "city": "Karisparu Village",
    "country": "Guyana",
    "region": "Potaro-Siparuni",
    "is_raining": true
  },
  {
    "coord": {
      "lat": -13.321377726734553,
      "lon": -76.42044349076797
    },
    "city": "Balneario Jahuay",
    "country": "Peru",
    "region": "Lima",
    "is_raining": false
  },
  {
    "coord": {
      "lat": 18.198246129015047,
      "lon": -66.29810547440105
    },
    "city": "Barranquitas",
    "country": "United States of America",
    "region": "Puerto Rico",
    "is_raining": true
  },
  {
    "coord": {
      "lat": 25.857962008200175,
      "lon": -108.56922583057697
    },
    "city": "San Francisco",
    "country": "Mexico",
    "region": "Sinaloa",
    "is_raining": false
  },
  {
    "coord": {
      "lat": -15.705157357182344,
      "lon": -64.6637051842786
    },
    "city": "Jerusalen",
    "country": "Bolivia",
    "region": "El Beni",
    "is_raining": false
  },
  {
    "coord": {
      "lat": 27.375015077060617,
      "lon": -103.39179122754025
    },
    "city": "San Alberto",
    "country": "Mexico",
    "region": "Coahuila",
    "is_raining": false
  },
  {
    "coord": {
      "lat": 32.88455566349486,
      "lon": -84.93723020608377
    },
    "city": "Andersons Corner",
    "country": "United States of America",
    "region": "Georgia",
    "is_raining": false
  },
  {
    "coord": {
      "lat": -8.799878215930576,
      "lon": -76.57624175544447
    },
    "city": "Shumacpampa",
    "country": "Peru",
    "region": "Huanuco",
    "is_raining": true
  },
  {
    "coord": {
      "lat": -31.32559436093868,
      "lon": -71.408612091195
    },
    "city": "Canela Alta",
    "country": "Chile",
    "region": "Coquimbo",
    "is_raining": true
  },
  {
    "coord": {
      "lat": -28.392870046528046,
      "lon": -71.82759191667068
    },
    "city": "Huasco",
    "country": "Chile",
    "region": "Atacama",
    "is_raining": false
  },
  {
    "coord": {
      "lat": 1.7890166299913801,
      "lon": -57.87207133137479
    },
    "city": "Taruma Village",
    "country": "Guyana",
    "region": "Upper Takutu-Upper Essequibo",
    "is_raining": true
  },
  {
    "coord": {
      "lat": 18.823008424460042,
      "lon": -63.04199213200107
    },
    "city": "Shoal Village",
    "country": "Anguilla",
    "region": "",
    "is_raining": true
  },
  {
    "coord": {
      "lat": -10.23499647525361,
      "lon": -68.66869219354936
    },
    "city": "Agostinho",
    "country": "Brazil",
    "region": "Acre",
    "is_raining": false
  },
  {
    "coord": {
      "lat": -11.20496514382991,
      "lon": -77.3134993577636
    },
    "city": "Sayan",
    "country": "Peru",
    "region": "Lima",
    "is_raining": false
  },
  {
    "coord": {
      "lat": 9.63178690333659,
      "lon": -78.897060600981
    },
    "city": "El Porvenir",
    "country": "Panama",
    "region": "San Blas",
    "is_raining": false
  },
  {
    "coord": {
      "lat": 33.51782114474963,
      "lon": -109.33535193163524
    },
    "city": "Strayhorse",
    "country": "United States of America",
    "region": "Arizona",
    "is_raining": false
  },
  {
    "coord": {
      "lat": -6.999192200621636,
      "lon": -76.14993120364234
    },
    "city": "Shambayacu",
    "country": "Peru",
    "region": "San Martin",
    "is_raining": false
  },
  {
    "coord": {
      "lat": 8.277110368737809,
      "lon": -79.0085158079115
    },
    "city": "Grillo",
    "country": "Panama",
    "region": "Panama",
    "is_raining": false
  },
  {
    "coord": {
      "lat": -17.98739395715714,
      "lon": -63.53188207902872
    },
    "city": "Jorochito",
    "country": "Bolivia",
    "region": "Santa Cruz",
    "is_raining": false
  },
  {
    "coord": {
      "lat": -19.477414946339536,
      "lon": -63.67351211340939
    },
    "city": "Madera",
    "country": "Bolivia",
    "region": "Santa Cruz",
    "is_raining": true
  },
  {
    "coord": {
      "lat": -5.636609626016963,
      "lon": -74.4223827416695
    },
    "city": "Buenos Ayres",
    "country": "Peru",
    "region": "Loreto",
    "is_raining": false
  },
  {
    "coord": {
      "lat": 8.751845840216475,
      "lon": -74.43494123168664
    },
    "city": "Pinillos",
    "country": "Colombia",
    "region": "Bolivar Department",
    "is_raining": false
  },
  {
    "coord": {
      "lat": 15.556296730929589,
      "lon": -98.02644495771325
    },
    "city": "El Azufre",
    "country": "Mexico",
    "region": "Oaxaca",
    "is_raining": false
  },
  {
    "coord": {
      "lat": 15.87149818196093,
      "lon": -98.60497307990443
    },
    "city": "Caguitan",
    "country": "Mexico",
    "region": "Oaxaca",
    "is_raining": false
  },
  {
    "coord": {
      "lat": 2.6146338042288733,
      "lon": -73.90642602493058
    },
    "city": "Charcoteofilo",
    "country": "Colombia",
    "region": "Meta",
    "is_raining": true
  },
  {
    "coord": {
      "lat": -10.244195159278007,
      "lon": -56.97744093877204
    },
    "city": "Feitoria Gelo",
    "country": "Brazil",
    "region": "Para",
    "is_raining": true
  },
  {
    "coord": {
      "lat": 16.79266847164034,
      "lon": -87.89427930404514
    },
    "city": "Dangriga",
    "country": "Belize",
    "region": "Stann Creek",
    "is_raining": false
  },
  {
    "coord": {
      "lat": 3.661760606785151,
      "lon": -59.765736125497035
    },
    "city": "Nova Estrela",
    "country": "Brazil",
    "region": "Roraima",
    "is_raining": true
  },
  {
    "coord": {
      "lat": -4.54033298047753,
      "lon": -56.48344939686375
    },
    "city": "Todos-Os-Santos",
    "country": "Brazil",
    "region": "Para",
    "is_raining": false
  },
  {
    "coord": {
      "lat": 19.528349573845986,
      "lon": -63.77320808220349
    },
    "city": "The Settlement",
    "country": "Virgin Islands",
    "region": "",
    "is_raining": true
  },
  {
    "coord": {
      "lat": 16.633876430046257,
      "lon": -90.75639082734824
    },
    "city": "El Planchon",
    "country": "Mexico",
    "region": "Chiapas",
    "is_raining": false
  },
  {
    "coord": {
      "lat": 8.49755539764621,
      "lon": -75.32759179763625
    },
    "city": "El Darien",
    "country": "Colombia",
    "region": "Cordoba",
    "is_raining": true
  },
  {
    "coord": {
      "lat": -13.314247382256795,
      "lon": -58.22694129814107
    },
    "city": "Feitoria Pedro Pinheiro",
    "country": "Brazil",
    "region": "Mato Grosso",
    "is_raining": false
  },
  {
    "coord": {
      "lat": 35.91336807686056,
      "lon": -76.14189500847155
    },
    "city": "Alligator",
    "country": "United States of America",
    "region": "North Carolina",
    "is_raining": false
  },
  {
    "coord": {
      "lat": 3.0463787527979633,
      "lon": -74.35494464013557
    },
    "city": "Ilusion",
    "country": "Colombia",
    "region": "Meta",
    "is_raining": true
  },
  {
    "coord": {
      "lat": 33.282287174869225,
      "lon": -100.09689808895475
    },
    "city": "Two F Crossing",
    "country": "United States of America",
    "region": "Texas",
    "is_raining": false
  },
  {
    "coord": {
      "lat": 29.753772109370473,
      "lon": -101.41609762948963
    },
    "city": "El Encino",
    "country": "Mexico",
    "region": "Coahuila",
    "is_raining": false
  },
  {
    "coord": {
      "lat": -6.3922953328897165,
      "lon": -52.19505806616664
    },
    "city": "Caxanga",
    "country": "Brazil",
    "region": "Para",
    "is_raining": false
  },
  {
    "coord": {
      "lat": 2.40370489064712,
      "lon": -57.598392704941624
    },
    "city": "Kwamalasamutu",
    "country": "Suriname",
    "region": "Sipaliwini",
    "is_raining": true
  },
  {
    "coord": {
      "lat": -4.691383335672398,
      "lon": -77.6778433886087
    },
    "city": "Indio Zenobio",
    "country": "Peru",
    "region": "Amazonas",
    "is_raining": true
  },
  {
    "coord": {
      "lat": -23.174750948347423,
      "lon": -70.64452996561691
    },
    "city": "Mejillones",
    "country": "Chile",
    "region": "Antofagasta",
    "is_raining": false
  },
  {
    "coord": {
      "lat": 3.8283848884863545,
      "lon": -75.30921130168959
    },
    "city": "Coyaima",
    "country": "Colombia",
    "region": "Tolima",
    "is_raining": true
  },
  {
    "coord": {
      "lat": 13.743227859300646,
      "lon": -89.96746715680132
    },
    "city": "San Francisco Menendez",
    "country": "El Salvador",
    "region": "Ahuachapan",
    "is_raining": true
  },
  {
    "coord": {
      "lat": -8.059221200910613,
      "lon": -73.34986381613747
    },
    "city": "Mundau",
    "country": "Brazil",
    "region": "Acre",
    "is_raining": false
  },
  {
    "coord": {
      "lat": 27.103802257089583,
      "lon": -108.59534217601743
    },
    "city": "El Refugio",
    "country": "Mexico",
    "region": "Chihuahua",
    "is_raining": false
  },
  {
    "coord": {
      "lat": 17.310509726710137,
      "lon": -92.05873147852799
    },
    "city": "Vicente Guerrero",
    "country": "Mexico",
    "region": "Chiapas",
    "is_raining": true
  },
  {
    "coord": {
      "lat": 30.79968522280584,
      "lon": -84.12430140977877
    },
    "city": "Cairo",
    "country": "United States of America",
    "region": "Georgia",
    "is_raining": false
  },
  {
    "coord": {
      "lat": -5.237675268069779,
      "lon": -57.678200775934755
    },
    "city": "Pedra Do Buraco",
    "country": "Brazil",
    "region": "Amazonas",
    "is_raining": true
  },
  {
    "coord": {
      "lat": 30.417359737435234,
      "lon": -93.03593328547835
    },
    "city": "Buller",
    "country": "United States of America",
    "region": "Louisiana",
    "is_raining": false
  },
  {
    "coord": {
      "lat": 22.642136947961106,
      "lon": -97.03961432219724
    },
    "city": "La Presita",
    "country": "Mexico",
    "region": "Tamaulipas",
    "is_raining": false
  },
  {
    "coord": {
      "lat": -8.162165040705219,
      "lon": -52.59262842929989
    },
    "city": "Bella Vista",
    "country": "Brazil",
    "region": "Para",
    "is_raining": false
  },
  {
    "coord": {
      "lat": -8.181948107969504,
      "lon": -56.84262803397041
    },
    "city": "Yaurare",
    "country": "Brazil",
    "region": "Para",
    "is_raining": true
  },
  {
    "coord": {
      "lat": 16.798854688549852,
      "lon": -96.34020233803966
    },
    "city": "Corral De Vacas",
    "country": "Mexico",
    "region": "Oaxaca",
    "is_raining": true
  },
  {
    "coord": {
      "lat": 4.357968529950369,
      "lon": -72.88445289889064
    },
    "city": "Cabuyaro",
    "country": "Colombia",
    "region": "Meta",
    "is_raining": true
  },
  {
    "coord": {
      "lat": -2.5257277964148415,
      "lon": -72.77280205404307
    },
    "city": "Pasto",
    "country": "Peru",
    "region": "Loreto",
    "is_raining": false
  },
  {
    "coord": {
      "lat": 16.47790940891295,
      "lon": -75.30205801832477
    },
    "city": "Belford",
    "country": "Jamaica",
    "region": "Saint Thomas",
    "is_raining": true
  },
  {
    "coord": {
      "lat": 0.6217386804565308,
      "lon": -89.07210952886186
    },
    "city": "Progreso",
    "country": "Ecuador",
    "region": "Galapagos",
    "is_raining": false
  },
  {
    "coord": {
      "lat": 10.831042108840421,
      "lon": -82.66591125232436
    },
    "city": "Jaloba",
    "country": "Costa Rica",
    "region": "Limon",
    "is_raining": false
  },
  {
    "coord": {
      "lat": 29.4788553571181,
      "lon": -84.5833199505562
    },
    "city": "Green Point",
    "country": "United States of America",
    "region": "Florida",
    "is_raining": false
  },
  {
    "coord": {
      "lat": 28.30055576430957,
      "lon": -79.34432372511972
    },
    "city": "Ballard Pines",
    "country": "United States of America",
    "region": "Florida",
    "is_raining": true
  },
  {
    "coord": {
      "lat": 24.36203538357347,
      "lon": -109.89486742157844
    },
    "city": "Las Cruces",
    "country": "Mexico",
    "region": "Baja California Sur",
    "is_raining": false
  },
  {
    "coord": {
      "lat": -17.15454842165971,
      "lon": -64.66742451073866
    },
    "city": "Barraca Isarsama",
    "country": "Bolivia",
    "region": "Santa Cruz",
    "is_raining": false
  },
  {
    "coord": {
      "lat": 8.093964744085227,
      "lon": -85.53217444976497
    },
    "city": "Carmen",
    "country": "Costa Rica",
    "region": "Puntarenas",
    "is_raining": false
  },
  {
    "coord": {
      "lat": 2.5565769021085174,
      "lon": -72.96024145663806
    },
    "city": "Charco Carbon",
    "country": "Colombia",
    "region": "Meta",
    "is_raining": true
  },
  {
    "coord": {
      "lat": 32.987631436367614,
      "lon": -79.48781137115891
    },
    "city": "Laurel Hill Plantation",
    "country": "United States of America",
    "region": "South Carolina",
    "is_raining": true
  },
  {
    "coord": {
      "lat": 15.554622471801508,
      "lon": -88.76098465640523
    },
    "city": "Morales",
    "country": "Guatemala",
    "region": "Izabal",
    "is_raining": false
  },
  {
    "coord": {
      "lat": 16.7471454746628,
      "lon": -62.275516114477014
    },
    "city": "Salem",
    "country": "Montserrat",
    "region": "Saint Peter",
    "is_raining": true
  },
  {
    "coord": {
      "lat": -24.2233522260221,
      "lon": -62.33687453315731
    },
    "city": "Mision Yacare",
    "country": "Argentina",
    "region": "Formosa",
    "is_raining": false
  },
  {
    "coord": {
      "lat": -1.9038809518730346,
      "lon": -52.44302755636123
    },
    "city": "Esperanca",
    "country": "Brazil",
    "region": "Para",
    "is_raining": true
  },
  {
    "coord": {
      "lat": -5.344835819117222,
      "lon": -58.515094212708995
    },
    "city": "Cabras",
    "country": "Brazil",
    "region": "Amazonas",
    "is_raining": true
  },
  {
    "coord": {
      "lat": -0.47208767566935705,
      "lon": -71.6520225527542
    },
    "city": "Los Patricio",
    "country": "Colombia",
    "region": "Amazonas",
    "is_raining": false
  },
  {
    "coord": {
      "lat": -12.750207219179558,
      "lon": -53.76501308925636
    },
    "city": "Aldeia Bacaeri",
    "country": "Brazil",
    "region": "Mato Grosso",
    "is_raining": true
  },
  {
    "coord": {
      "lat": -21.912626281607857,
      "lon": -70.8980812129638
    },
    "city": "Tocopilla",
    "country": "Chile",
    "region": "Antofagasta",
    "is_raining": false
  },
  {
    "coord": {
      "lat": -19.639832309500633,
      "lon": -58.32497652407336
    },
    "city": "Fortin Vargas",
    "country": "Bolivia",
    "region": "Santa Cruz",
    "is_raining": false
  },
  {
    "coord": {
      "lat": 15.393779102312195,
      "lon": -92.20555249387058
    },
    "city": "Nuevo Vergel",
    "country": "Mexico",
    "region": "Chiapas",
    "is_raining": false
  },
  {
    "coord": {
      "lat": 35.641678278264,
      "lon": -83.48563509860938
    },
    "city": "Fort Harry",
    "country": "United States of America",
    "region": "Tennessee",
    "is_raining": false
  },
  {
    "coord": {
      "lat": 31.22785037212047,
      "lon": -93.39684789462227
    },
    "city": "Anacoco",
    "country": "United States of America",
    "region": "Louisiana",
    "is_raining": false
  },
  {
    "coord": {
      "lat": 4.7782550049611245,
      "lon": -76.8744141839823
    },
    "city": "Ambalema",
    "country": "Colombia",
    "region": "Tolima",
    "is_raining": true
  },
  {
    "coord": {
      "lat": 31.26285237423066,
      "lon": -109.00308893176792
    },
    "city": "Los Ojos Calientes",
    "country": "Mexico",
    "region": "Sonora",
    "is_raining": false
  },
  {
    "coord": {
      "lat": 26.843448200858468,
      "lon": -76.47227494617614
    },
    "city": "Hope Town Settlement",
    "country": "Bahamas",
    "region": "Marsh Harbour",
    "is_raining": false
  },
  {
    "coord": {
      "lat": -7.867371802014617,
      "lon": -60.65382267012808
    },
    "city": "Salvarano",
    "country": "Brazil",
    "region": "Amazonas",
    "is_raining": true
  },
  {
    "coord": {
      "lat": 28.65894865144898,
      "lon": -78.75023925420457
    },
    "city": "Cape Canaveral",
    "country": "United States of America",
    "region": "Florida",
    "is_raining": true
  },
  {
    "coord": {
      "lat": 17.38400176605741,
      "lon": -94.93224033854855
    },
    "city": "Remolino De Los Cedros",
    "country": "Mexico",
    "region": "Veracruz-Llave",
    "is_raining": false
  },
  {
    "coord": {
      "lat": 21.86571164747913,
      "lon": -76.29343350990086
    },
    "city": "Jagueyes",
    "country": "Cuba",
    "region": "Villa Clara",
    "is_raining": false
  },
  {
    "coord": {
      "lat": -0.8567620625222077,
      "lon": -73.66981351561648
    },
    "city": "Argelia",
    "country": "Colombia",
    "region": "Amazonas",
    "is_raining": false
  },
  {
    "coord": {
      "lat": 7.714579377976776,
      "lon": -60.969771032416276
    },
    "city": "Esperanza",
    "country": "Venezuela",
    "region": "Bolivar",
    "is_raining": true
  },
  {
    "coord": {
      "lat": -27.5122455180135,
      "lon": -110.98445574546162
    },
    "city": "Moeiroa",
    "country": "Chile",
    "region": "Valparaiso",
    "is_raining": true
  },
  {
    "coord": {
      "lat": -3.8242812608400953,
      "lon": -58.19670584599996
    },
    "city": "Quem Diria",
    "country": "Brazil",
    "region": "Amazonas",
    "is_raining": true
  },
  {
    "coord": {
      "lat": -29.11213763088861,
      "lon": -64.91584366299409
    },
    "city": "San Antonio De Los Flores",
    "country": "Argentina",
    "region": "Santiago del Estero",
    "is_raining": false
  },
  {
    "coord": {
      "lat": -26.89900524359399,
      "lon": -108.29442412482446
    },
    "city": "Hanga Roa",
    "country": "Chile",
    "region": "Valparaiso",
    "is_raining": true
  },
  {
    "coord": {
      "lat": 16.117916862952697,
      "lon": -83.58115365349197
    },
    "city": "Clacura",
    "country": "Honduras",
    "region": "Gracias a Dios",
    "is_raining": false
  },
  {
    "coord": {
      "lat": -9.476173865059195,
      "lon": -75.883964626906
    },
    "city": "Chinchavito",
    "country": "Peru",
    "region": "Huanuco",
    "is_raining": true
  },
  {
    "coord": {
      "lat": 23.97088683033293,
      "lon": -108.40543506460179
    },
    "city": "Altata",
    "country": "Mexico",
    "region": "Sinaloa",
    "is_raining": false
  },
  {
    "coord": {
      "lat": -32.22232133587235,
      "lon": -78.17432045976113
    },
    "city": "Robinson Crusoe",
    "country": "Chile",
    "region": "Valparaiso",
    "is_raining": false
  },
  {
    "coord": {
      "lat": -2.689439368470275,
      "lon": -57.473056195032605
    },
    "city": "Jurupari",
    "country": "Brazil",
    "region": "Amazonas",
    "is_raining": true
  },
  {
    "coord": {
      "lat": 12.899017274187045,
      "lon": -63.13860591148823
    },
    "city": "Gouyave",
    "country": "Grenada",
    "region": "Saint John",
    "is_raining": true
  },
  {
    "coord": {
      "lat": 34.24195630524567,
      "lon": -108.28904289927326
    },
    "city": "Mangas",
    "country": "United States of America",
    "region": "New Mexico",
    "is_raining": false
  },
  {
    "coord": {
      "lat": 34.34325751693503,
      "lon": -92.98810842398741
    },
    "city": "Malvern",
    "country": "United States of America",
    "region": "Arkansas",
    "is_raining": true
  },
  {
    "coord": {
      "lat": 15.048166461331135,
      "lon": -81.4958113446198
    },
    "city": "Tuibila",
    "country": "Honduras",
    "region": "Gracias a Dios",
    "is_raining": false
  },
  {
    "coord": {
      "lat": 25.48584195035258,
      "lon": -104.23623364701027
    },
    "city": "Monte Grande",
    "country": "Mexico",
    "region": "Durango",
    "is_raining": false
  },
  {
    "coord": {
      "lat": 13.470623763488419,
      "lon": -86.94785842037642
    },
    "city": "Morolica",
    "country": "Honduras",
    "region": "Choluteca",
    "is_raining": true
  },
  {
    "coord": {
      "lat": 3.8936635529934165,
      "lon": -72.43412248415301
    },
    "city": "Guacamaya",
    "country": "Colombia",
    "region": "Meta",
    "is_raining": true
  },
  {
    "coord": {
      "lat": 18.199371496591382,
      "lon": -91.94173822863388
    },
    "city": "San Felipe",
    "country": "Mexico",
    "region": "Campeche",
    "is_raining": false
  },
  {
    "coord": {
      "lat": 3.4515555584292343,
      "lon": -72.89819190256358
    },
    "city": "Pamperos",
    "country": "Colombia",
    "region": "Meta",
    "is_raining": true
  },
  {
    "coord": {
      "lat": 28.023908183777294,
      "lon": -104.80378778402516
    },
    "city": "Cerro Blanco",
    "country": "Mexico",
    "region": "Chihuahua",
    "is_raining": false
  },
  {
    "coord": {
      "lat": 29.43094357304919,
      "lon": -85.64164600579251
    },
    "city": "Indian Pass",
    "country": "United States of America",
    "region": "Florida",
    "is_raining": false
  },
  {
    "coord": {
      "lat": -0.5608337515629671,
      "lon": -73.08074434174709
    },
    "city": "Maquias",
    "country": "Colombia",
    "region": "Amazonas",
    "is_raining": false
  },
  {
    "coord": {
      "lat": 17.893360618687524,
      "lon": -90.00971779038694
    },
    "city": "San Felipe",
    "country": "Mexico",
    "region": "Campeche",
    "is_raining": false
  },
  {
    "coord": {
      "lat": 32.77616546513186,
      "lon": -81.31459524031145
    },
    "city": "Solomons Crossroads",
    "country": "United States of America",
    "region": "South Carolina",
    "is_raining": false
  },
  {
    "coord": {
      "lat": -6.796152490727067,
      "lon": -80.44234081733839
    },
    "city": "Caldereta",
    "country": "Peru",
    "region": "Lambayeque",
    "is_raining": true
  },
  {
    "coord": {
      "lat": 16.932559531741404,
      "lon": -65.56321338000409
    },
    "city": "Concordia",
    "country": "United States of America",
    "region": "Virgin Islands",
    "is_raining": false
  },
  {
    "coord": {
      "lat": 37.894082436617914,
      "lon": -85.38591276554286
    },
    "city": "Bardstown",
    "country": "United States of America",
    "region": "Kentucky",
    "is_raining": false
  },
  {
    "coord": {
      "lat": -9.650228198451856,
      "lon": -55.72697260756427
    },
    "city": "Alta Floresta",
    "country": "Brazil",
    "region": "Mato Grosso",
    "is_raining": true
  },
  {
    "coord": {
      "lat": 12.732163708474033,
      "lon": -83.4633166588191
    },
    "city": "Tasbapauni",
    "country": "Nicaragua",
    "region": "Region Autonoma Atlantico Sur",
    "is_raining": false
  },
  {
    "coord": {
      "lat": -24.91142733536175,
      "lon": -69.67492838693617
    },
    "city": "Pampa Fidelia",
    "country": "Chile",
    "region": "Antofagasta",
    "is_raining": false
  },
  {
    "coord": {
      "lat": -11.948066267469343,
      "lon": -62.370364610244785
    },
    "city": "Nova Brasilandia D'oeste",
    "country": "Brazil",
    "region": "Rondonia",
    "is_raining": true
  },
  {
    "coord": {
      "lat": 14.278986425933198,
      "lon": -97.19743448894008
    },
    "city": "De La Rosa",
    "country": "Mexico",
    "region": "Oaxaca",
    "is_raining": true
  },
  {
    "coord": {
      "lat": 37.76520120103186,
      "lon": -88.230155530077
    },
    "city": "Ridgway",
    "country": "United States of America",
    "region": "Illinois",
    "is_raining": false
  },
  {
    "coord": {
      "lat": -27.23818213739996,
      "lon": -61.91379443923041
    },
    "city": "Los Quebrachitos",
    "country": "Argentina",
    "region": "Chaco",
    "is_raining": false
  },
  {
    "coord": {
      "lat": 15.943799169716257,
      "lon": -92.61541987144953
    },
    "city": "San Rafael",
    "country": "Mexico",
    "region": "Chiapas",
    "is_raining": false
  },
  {
    "coord": {
      "lat": -7.8409142057289785,
      "lon": -78.76020275835931
    },